,City,Country,Date,Latitude,Longitude,Cloudiness (%),Humidity (%),Max Temp (F),Wind Speed (mph)
0,Chui,UY,2020-03-15 23:40:37,-33.7,-53.46,100,71,64.0,6.35
1,Bhatkal,IN,2020-03-15 23:40:39,13.97,74.57,9,75,76.05,6.11
2,Pangai,TO,2020-03-15 23:40:41,-19.8,-174.35,90,79,84.2,8.05
3,Camacha,PT,2020-03-15 23:40:43,33.08,-16.33,40,72,62.6,13.87
4,Lompoc,US,2020-03-15 23:41:06,34.64,-120.46,90,81,57.2,10.29
5,Ribeira Grande,PT,2020-03-15 23:41:08,38.52,-28.7,42,82,56.77,8.1
6,Hasaki,JP,2020-03-15 23:41:13,35.73,140.83,75,86,45.0,6.93
7,Atuona,PF,2020-03-15 23:41:15,-9.8,-139.03,5,65,82.42,9.31
8,Sangar,RU,2020-03-15 23:41:17,63.92,127.47,98,82,-1.01,14.52
9,Cape Town,ZA,2020-03-15 23:41:18,-33.93,18.42,20,63,64.4,19.46
10,Nānākuli,US,2020-03-15 23:41:21,21.39,-158.15,90,78,78.8,8.05
11,Karratha,AU,2020-03-15 23:41:23,-20.74,116.85,0,75,84.09,13.51
12,Hilo,US,2020-03-15 23:41:25,19.73,-155.09,90,74,78.8,12.75
13,Seoul,KR,2020-03-15 23:37:04,37.57,126.98,1,58,32.0,2.24
14,Mataura,NZ,2020-03-15 23:41:30,-46.19,168.86,89,85,54.0,11.01
15,Pisco,PE,2020-03-15 23:37:34,-13.7,-76.22,75,30,71.6,18.34
16,Saint-Joseph,RE,2020-03-15 23:41:34,-21.37,55.62,100,69,75.2,11.41
17,Ola,RU,2020-03-15 23:41:36,59.58,151.28,100,66,9.95,13.2
18,Ust'-Uda,RU,2020-03-15 23:41:38,54.17,103.03,78,95,21.79,4.07
19,Polson,US,2020-03-15 23:41:40,47.69,-114.16,1,39,28.99,3.42
20,Rikitea,PF,2020-03-15 23:41:42,-23.12,-134.97,92,81,79.11,12.15
21,Albany,US,2020-03-15 23:37:04,42.6,-73.97,1,47,39.2,12.75
22,Praia,CV,2020-03-15 23:41:49,14.92,-23.51,20,83,71.6,19.46
23,Hermanus,ZA,2020-03-15 23:41:51,-34.42,19.23,24,85,62.01,1.99
24,Katobu,ID,2020-03-15 23:41:53,-4.94,122.53,73,85,80.19,1.88
25,Deputatsky,RU,2020-03-15 23:41:55,69.3,139.9,1,78,-21.37,3.18
26,Shupīyan,IN,2020-03-15 23:41:57,33.72,74.83,9,74,30.6,7.85
27,East London,ZA,2020-03-15 23:41:59,-33.02,27.91,100,71,70.05,11.77
28,Santa Fe,AR,2020-03-15 23:39:26,-31.63,-60.7,99,88,70.0,4.0
29,Cidreira,BR,2020-03-15 23:42:04,-30.18,-50.21,85,91,75.79,8.5
30,Ketchikan,US,2020-03-15 23:42:06,55.34,-131.65,1,52,44.6,16.11
31,Abu Kamal,SY,2020-03-15 23:42:08,34.45,40.92,67,65,60.22,6.33
32,Hobart,AU,2020-03-15 23:40:28,-42.88,147.33,75,58,62.01,4.7
33,Dikson,RU,2020-03-15 23:42:12,73.51,80.55,100,100,-13.11,7.56
34,Kodinsk,RU,2020-03-15 23:42:15,58.69,99.18,72,93,27.55,9.4
35,Lebu,CL,2020-03-15 23:37:45,-37.62,-73.65,0,74,56.95,9.91
36,Yellowknife,CA,2020-03-15 23:42:19,62.46,-114.35,75,48,21.2,24.16
37,Punta Arenas,CL,2020-03-15 23:42:21,-53.15,-70.92,75,72,59.0,16.11
38,Westport,US,2020-03-15 23:42:23,41.14,-73.36,1,16,50.0,10.29
39,Bredasdorp,ZA,2020-03-15 23:42:25,-34.53,20.04,72,68,66.2,12.75
40,Anadyr,RU,2020-03-15 23:42:27,64.75,177.48,20,85,23.0,6.71
41,Port Alfred,ZA,2020-03-15 23:39:01,-33.59,26.89,100,98,62.01,1.01
42,Quatre Cocos,MU,2020-03-15 23:42:32,-20.21,57.76,40,88,73.99,3.36
43,Puerto Ayora,EC,2020-03-15 23:42:34,-0.74,-90.35,20,78,82.4,10.29
44,Ushuaia,AR,2020-03-15 23:41:39,-54.8,-68.3,75,71,55.4,19.46
45,Lagoa,PT,2020-03-15 23:42:38,39.05,-27.98,0,79,60.71,9.53
46,Vaini,TO,2020-03-15 23:42:40,-21.2,-175.2,90,79,86.0,13.87
47,Mahébourg,MU,2020-03-15 23:42:42,-20.41,57.7,40,88,73.99,3.36
48,Port Keats,AU,2020-03-15 23:42:44,-14.25,129.55,14,57,86.49,5.73
49,Amga,RU,2020-03-15 23:42:48,60.9,131.96,88,95,-0.63,3.4
50,Butaritari,KI,2020-03-15 23:42:51,3.07,172.79,0,79,84.18,13.78
51,Chioggia,IT,2020-03-15 23:42:53,45.23,12.29,0,56,45.0,8.05
52,Saint-Philippe,RE,2020-03-15 23:42:55,-21.36,55.77,100,69,75.2,11.41
53,Sitka,US,2020-03-15 23:42:57,57.05,-135.33,20,69,44.6,8.03
54,Busselton,AU,2020-03-15 23:42:59,-33.65,115.33,35,76,61.0,7.43
55,Lisala,CD,2020-03-15 23:43:01,2.15,21.52,100,90,72.03,2.39
56,Arlit,NE,2020-03-15 23:43:03,18.74,7.39,20,12,71.94,5.08
57,Nicoya,CR,2020-03-15 23:43:05,10.15,-85.45,48,40,89.6,24.16
58,Barrow,US,2020-03-15 23:43:10,71.29,-156.79,90,77,6.8,27.51
59,Merauke,ID,2020-03-15 23:43:12,-8.47,140.33,25,63,88.05,1.88
60,Strezhevoy,RU,2020-03-15 23:43:14,60.73,77.59,90,99,32.0,17.9
61,Bambous Virieux,MU,2020-03-15 23:43:16,-20.34,57.76,40,88,73.99,3.36
62,Chāndor,IN,2020-03-15 23:43:20,20.33,74.25,47,33,60.76,2.95
63,Pevek,RU,2020-03-15 23:43:25,69.7,170.31,65,82,6.1,13.62
64,Vestmannaeyjar,IS,2020-03-15 23:43:27,63.44,-20.27,100,89,38.32,43.71
65,Ponta do Sol,PT,2020-03-15 23:43:29,32.67,-17.1,40,63,62.6,13.87
66,Berlevåg,NO,2020-03-15 23:43:31,70.86,29.09,20,67,19.4,11.41
67,Bluff,NZ,2020-03-15 23:43:33,-46.6,168.33,87,85,54.0,11.01
68,Sorong,ID,2020-03-15 23:43:35,-0.88,131.25,20,69,82.36,3.44
69,Kapaa,US,2020-03-15 23:43:37,22.08,-159.32,20,69,80.6,12.75
70,Aklavik,CA,2020-03-15 23:43:39,68.22,-135.01,5,60,6.8,6.93
71,San Quintín,MX,2020-03-15 23:43:41,30.48,-115.95,2,71,61.45,16.13
72,Upernavik,GL,2020-03-15 23:42:03,72.79,-56.15,1,75,-23.03,8.03
73,Xiaoshi,CN,2020-03-15 23:43:46,41.3,124.12,1,62,19.4,4.47
74,Saint George,US,2020-03-15 23:38:55,37.1,-113.58,1,37,66.2,19.46
75,Provideniya,RU,2020-03-15 23:40:01,64.38,-173.3,75,92,28.4,6.71
76,Srednekolymsk,RU,2020-03-15 23:41:08,67.45,153.68,0,88,-9.78,3.02
77,Bethel,US,2020-03-15 23:39:31,41.37,-73.41,1,24,48.99,9.17
78,Cockburn Town,TC,2020-03-15 23:43:58,21.46,-71.14,0,71,74.23,16.26
79,Qaanaaq,GL,2020-03-15 23:44:00,77.48,-69.36,100,61,-3.8,7.52
80,Nome,US,2020-03-15 23:40:33,64.5,-165.41,100,96,27.7,7.14
81,Taoudenni,ML,2020-03-15 23:44:05,22.68,-3.98,0,10,73.33,9.35
82,Leningradskiy,RU,2020-03-15 23:44:07,69.38,178.42,25,72,15.1,5.57
83,Raudeberg,NO,2020-03-15 23:44:09,61.99,5.14,66,64,39.2,10.29
84,Rexburg,US,2020-03-15 23:44:11,43.83,-111.79,90,70,44.6,6.93
85,La Ronge,CA,2020-03-15 23:44:13,55.1,-105.28,75,57,17.6,12.75
86,Jamestown,US,2020-03-15 23:44:15,42.1,-79.24,1,47,37.4,8.05
87,Belmonte,BR,2020-03-15 23:44:17,-15.86,-38.88,91,78,78.8,3.36
88,Gizo Government Station,SB,2020-03-15 23:44:20,-8.1,156.84,100,70,83.46,4.94
89,Nikolskoye,RU,2020-03-15 23:44:22,59.7,30.79,82,55,34.0,11.18
90,San Patricio,MX,2020-03-15 23:44:24,19.22,-104.7,20,74,84.2,11.41
91,Tuktoyaktuk,CA,2020-03-15 23:40:13,69.45,-133.04,20,70,-2.2,14.99
92,Saldanha,ZA,2020-03-15 23:44:28,-33.01,17.94,100,72,60.8,9.17
93,Xining,CN,2020-03-15 23:44:30,36.62,101.77,98,88,23.56,2.21
94,Waipawa,NZ,2020-03-15 23:44:32,-41.41,175.52,0,46,71.6,16.11
95,Cap Malheureux,MU,2020-03-15 23:44:34,-19.98,57.61,40,88,73.99,3.36
96,Tulun,RU,2020-03-15 23:44:36,54.56,100.58,97,87,25.68,3.83
97,Torbay,CA,2020-03-15 23:44:39,47.67,-52.73,40,73,27.0,14.99
98,Ranfurly,NZ,2020-03-15 23:44:41,-45.13,170.1,39,68,69.01,5.01
99,Pacific Grove,US,2020-03-15 23:44:43,36.62,-121.92,75,81,55.99,10.29
100,Dekernes,EG,2020-03-15 23:44:45,31.09,31.59,0,88,55.62,2.75
101,Dunedin,NZ,2020-03-15 23:44:47,-45.87,170.5,50,82,54.27,30.78
102,Myaundzha,RU,2020-03-15 23:44:49,63.05,147.19,100,95,-10.98,3.38
103,Tarko-Sale,RU,2020-03-15 23:44:51,64.92,77.78,100,83,-6.74,12.66
104,Tuatapere,NZ,2020-03-15 23:44:56,-46.13,167.68,98,85,54.0,11.01
105,Iqaluit,CA,2020-03-15 23:44:58,63.75,-68.51,90,76,-4.0,6.93
106,Cayenne,GF,2020-03-15 23:42:28,4.93,-52.33,40,74,80.6,3.36
107,San Ramon,US,2020-03-15 23:41:40,37.78,-121.98,90,58,55.4,14.99
108,Ulundi,ZA,2020-03-15 23:45:04,-28.34,31.42,78,96,66.92,8.63
109,Codrington,AU,2020-03-15 23:45:07,-38.27,141.97,0,77,58.5,15.14
110,Shizunai-furukawachō,JP,2020-03-15 23:44:34,42.33,142.37,100,72,30.15,1.34
111,Tazovsky,RU,2020-03-15 23:45:11,67.47,78.7,65,99,-10.93,7.83
112,Kavieng,PG,2020-03-15 23:45:13,-2.57,150.8,93,71,83.61,5.88
113,Aykhal,RU,2020-03-15 23:45:15,66.0,111.5,90,92,21.2,4.47
114,Ponta Delgada,PT,2020-03-15 23:45:17,37.73,-25.67,20,81,51.8,3.36
115,George Town,MY,2020-03-15 23:44:50,5.41,100.34,20,94,77.0,2.24
116,Katsuura,JP,2020-03-15 23:43:20,35.13,140.3,40,75,51.01,10.29
117,Lata,PT,2020-03-15 23:45:24,40.16,-8.33,19,89,52.0,3.96
118,Lincoln,US,2020-03-15 23:42:40,40.8,-96.67,90,79,35.6,6.93
119,Arraial do Cabo,BR,2020-03-15 23:45:28,-22.97,-42.03,5,82,78.51,23.8
120,New Norfolk,AU,2020-03-15 23:45:32,-42.78,147.06,75,58,63.0,4.7
121,Pineville,US,2020-03-15 23:45:34,31.32,-92.43,1,68,78.8,9.17
122,Herat Province,AF,2020-03-15 23:45:36,34.5,62.0,100,42,58.46,13.91
123,Chapecó,BR,2020-03-15 23:43:41,-27.1,-52.62,20,57,84.99,17.22
124,Yankton,US,2020-03-15 23:45:41,42.87,-97.4,90,76,32.0,13.87
125,Airai,TL,2020-03-15 23:45:43,-8.93,125.41,76,61,76.41,1.92
126,Guerrero Negro,MX,2020-03-15 23:45:45,27.98,-114.06,0,62,63.68,16.82
127,Naze,JP,2020-03-15 23:42:12,28.37,129.48,75,48,62.6,18.34
128,Concepción,CL,2020-03-15 23:45:49,-36.83,-73.05,0,63,62.6,14.99
129,Slave Lake,CA,2020-03-15 23:45:51,55.28,-114.77,20,60,10.4,2.24
130,Santa Maria,BR,2020-03-15 23:41:20,-29.68,-53.81,90,94,75.2,4.7
131,Gorontalo,ID,2020-03-15 23:45:55,0.54,123.06,11,71,79.29,4.05
132,Mayo,US,2020-03-15 23:45:57,38.89,-76.51,40,65,50.0,3.02
133,Aksay,RU,2020-03-15 23:46:00,47.26,39.87,23,62,21.2,8.95
134,Kédougou,SN,2020-03-15 23:46:02,12.56,-12.17,59,16,79.45,3.02
135,Avarua,CK,2020-03-15 23:43:24,-21.21,-159.78,100,79,84.2,6.93
136,Kiunga,PG,2020-03-15 23:46:06,-6.12,141.29,100,99,72.7,3.44
137,Somerset East,ZA,2020-03-15 23:46:08,-32.72,25.59,90,94,53.31,5.95
138,Bandarbeyla,SO,2020-03-15 23:46:11,9.49,50.81,70,75,78.51,7.16
139,Doha,QA,2020-03-15 23:46:15,25.29,51.53,28,69,75.2,10.29
140,Rawson,AR,2020-03-15 23:46:17,-43.3,-65.1,75,58,65.25,18.03
141,Touros,BR,2020-03-15 23:46:21,-5.2,-35.46,40,94,78.8,3.36
142,Port Blair,IN,2020-03-15 23:46:26,11.67,92.75,70,74,82.54,11.63
143,Tasiilaq,GL,2020-03-15 23:46:28,65.61,-37.64,100,50,6.8,13.87
144,Champerico,GT,2020-03-15 23:43:54,14.3,-91.92,75,62,86.0,9.17
145,Tarragona,ES,2020-03-15 23:45:14,41.13,1.25,90,87,59.0,3.36
146,Banda Aceh,ID,2020-03-15 23:46:34,5.56,95.32,37,87,74.48,4.52
147,Luanda,AO,2020-03-15 23:46:38,-8.84,13.23,20,83,80.6,8.05
148,Sturgis,US,2020-03-15 23:46:40,41.8,-85.42,1,39,44.6,3.36
149,Olafsvik,IS,2020-03-15 23:46:43,64.89,-23.71,100,78,31.71,22.41
150,Poconé,BR,2020-03-15 23:46:45,-16.26,-56.62,48,78,78.93,3.22
151,Iskateley,RU,2020-03-15 23:46:47,67.68,53.15,100,90,18.27,23.33
152,Esperance,AU,2020-03-15 23:46:51,-33.87,121.9,40,93,66.2,6.93
153,La Primavera,CO,2020-03-15 23:46:53,5.49,-70.41,100,40,88.59,4.09
154,Norman Wells,CA,2020-03-15 23:44:34,65.28,-126.83,20,78,15.8,21.92
155,Saskylakh,RU,2020-03-15 23:46:58,71.92,114.08,100,96,-8.37,20.74
156,Santa Isabel Rio Negro,BR,2020-03-15 23:47:00,-0.41,-65.02,100,95,76.8,2.68
157,Yulara,AU,2020-03-15 23:47:02,-25.24,130.99,0,13,77.0,11.41
158,Yumen,CN,2020-03-15 23:47:04,40.28,97.2,55,40,27.72,0.31
159,Launceston,AU,2020-03-15 23:45:00,-41.45,147.17,89,67,64.0,4.7
160,Nemuro,JP,2020-03-15 23:47:11,43.32,145.57,75,63,28.4,3.36
161,Vanimo,PG,2020-03-15 23:47:13,-2.67,141.3,100,83,77.85,8.3
162,Salalah,OM,2020-03-15 23:46:06,17.02,54.09,40,65,77.0,8.05
163,Porto-Novo,BJ,2020-03-15 23:47:18,6.5,2.6,40,83,84.2,13.87
164,Ambon City,ID,2020-03-15 23:47:20,-3.7,128.18,20,74,84.2,3.36
165,Mildura,AU,2020-03-15 23:47:22,-34.2,142.15,0,48,73.0,10.29
166,Poya,NC,2020-03-15 23:47:24,-21.35,165.15,80,77,80.42,11.86
167,Mount Gambier,AU,2020-03-15 23:47:27,-37.83,140.77,0,76,57.2,11.41
168,Thompson,CA,2020-03-15 23:42:49,55.74,-97.86,90,57,19.4,13.87
169,Srandakan,ID,2020-03-15 23:47:31,-7.94,110.25,90,83,78.51,2.82
170,Lexington,US,2020-03-15 23:45:05,37.99,-84.48,90,82,42.8,9.17
171,Zhezkazgan,KZ,2020-03-15 23:47:35,47.8,67.71,100,79,39.0,3.04
172,Mehamn,NO,2020-03-15 23:47:37,71.04,27.85,20,67,19.4,11.41
173,Oktyabr'skiy,RU,2020-03-15 23:47:39,54.48,53.47,100,97,31.19,9.22
174,Iskitim,RU,2020-03-15 23:47:41,54.64,83.3,100,69,39.2,15.66
175,Avera,US,2020-03-15 23:47:46,33.19,-82.53,75,72,68.0,4.7
176,Fairbanks,US,2020-03-15 23:47:48,64.84,-147.72,90,80,35.01,2.75
177,‘Āhuimanu,US,2020-03-15 23:44:56,21.44,-157.84,90,78,78.8,8.05
178,Asheboro,US,2020-03-15 23:47:52,35.71,-79.81,90,62,55.4,8.05
179,Mar del Plata,AR,2020-03-15 23:45:40,-38.0,-57.56,3,72,61.0,5.82
180,Saint Paul Harbor,US,2020-03-15 23:47:56,57.79,-152.41,75,55,39.2,2.77
181,Ancud,CL,2020-03-15 23:47:58,-41.87,-73.82,90,67,62.6,9.17
182,Coquimbo,CL,2020-03-15 23:47:43,-29.95,-71.34,90,82,62.6,6.93
183,Vostok,RU,2020-03-15 23:48:03,46.49,135.88,100,90,13.68,4.88
184,Alekseyevka,RU,2020-03-15 23:48:05,50.63,38.69,53,59,27.73,11.01
185,Ekhabi,RU,2020-03-15 23:48:07,53.51,142.97,70,95,1.8,12.03
186,Buta,CD,2020-03-15 23:48:09,2.79,24.73,95,97,70.07,1.19
187,Longyearbyen,SJ,2020-03-15 23:48:12,78.22,15.64,90,64,-0.4,13.87
188,Gravdal,NO,2020-03-15 23:48:14,68.12,13.5,80,78,29.5,26.22
189,Gao,ML,2020-03-15 23:44:52,16.64,1.64,9,11,79.88,11.54
190,Majene,ID,2020-03-15 23:48:19,-3.54,118.97,94,78,80.24,3.02
191,Wajid,SO,2020-03-15 23:48:21,3.81,43.25,33,81,74.32,14.76
192,Río Gallegos,AR,2020-03-15 23:44:34,-51.62,-69.22,75,37,69.8,19.46
193,Bengkulu,ID,2020-03-15 23:48:27,-3.8,102.27,28,87,75.34,3.38
194,Destin,US,2020-03-15 23:45:10,30.39,-86.5,1,73,77.0,4.7
195,Birao,CF,2020-03-15 23:48:31,10.28,22.79,54,16,77.25,7.9
196,Eureka,US,2020-03-15 23:48:34,40.8,-124.16,40,70,48.99,11.41
197,Adrar,MR,2020-03-15 23:48:36,20.5,-10.07,0,17,70.34,12.3
198,Ostrovnoy,RU,2020-03-15 23:44:53,68.05,39.51,100,96,24.31,7.29
199,Itarema,BR,2020-03-15 23:48:42,-2.92,-39.92,100,94,76.41,3.33
200,Altay,CN,2020-03-15 23:48:44,47.87,88.12,22,35,24.98,6.13
201,Diamantino,BR,2020-03-15 23:48:46,-14.41,-56.45,84,90,74.71,2.71
202,Faanui,PF,2020-03-15 23:48:48,-16.48,-151.75,1,77,82.71,12.64
203,Haapsalu,EE,2020-03-15 23:48:50,58.94,23.54,100,87,39.0,21.0
204,Crucea,RO,2020-03-15 23:48:55,44.53,28.23,0,53,24.8,6.93
205,Cherskiy,RU,2020-03-15 23:48:57,68.75,161.3,88,89,-0.67,3.83
206,Makungu,TZ,2020-03-15 23:48:59,-8.73,35.28,100,92,58.68,2.68
207,Victor Harbor,AU,2020-03-15 23:47:44,-35.57,138.62,24,35,71.01,11.41
208,Tezu,IN,2020-03-15 23:49:03,27.92,96.17,97,85,60.98,3.4
209,Haines Junction,CA,2020-03-15 23:47:33,60.75,-137.51,11,83,28.27,2.68
210,Copiapó,CL,2020-03-15 23:49:07,-27.37,-70.33,90,77,64.4,4.7
211,Tostedt,DE,2020-03-15 23:49:12,53.28,9.72,100,66,51.01,6.93
212,Lüderitz,NA,2020-03-15 23:49:14,-26.65,15.16,0,72,66.2,14.99
213,Hamilton,US,2020-03-15 23:47:13,39.18,-84.53,90,84,43.0,5.82
214,Kruisfontein,ZA,2020-03-15 23:49:20,-34.0,24.73,100,91,59.45,6.6
215,Opuwo,NA,2020-03-15 23:49:22,-18.06,13.84,93,49,68.18,2.08
216,Moctezuma,MX,2020-03-15 23:49:24,29.8,-109.67,30,23,70.32,9.4
217,Auki,SB,2020-03-15 23:49:27,-8.77,160.7,100,72,84.85,7.9
218,Nishihara,JP,2020-03-15 23:49:29,26.18,127.76,0,42,64.4,20.8
219,Saltillo,MX,2020-03-15 23:46:46,25.42,-101.0,75,68,73.0,5.82
220,Narauli,IN,2020-03-15 23:49:33,28.5,78.72,36,72,57.69,6.31
221,Bodmin,GB,2020-03-15 23:49:35,50.47,-4.72,0,81,46.0,8.05
222,Miraflores,MX,2020-03-15 23:49:37,19.22,-98.81,75,35,89.6,11.41
223,Voh,NC,2020-03-15 23:49:39,-20.97,164.7,35,78,81.3,11.05
224,Castro,BR,2020-03-15 23:49:44,-24.79,-50.01,7,78,67.95,3.47
225,Baker City,US,2020-03-15 23:49:46,44.77,-117.83,90,86,37.4,8.05
226,Port-Gentil,GA,2020-03-15 23:46:06,-0.72,8.78,40,88,82.4,4.7
227,Tura,IN,2020-03-15 23:49:52,25.52,90.22,82,74,64.6,0.83
228,Sagaing,MM,2020-03-15 23:49:54,21.88,95.98,0,28,73.24,8.1
229,Mastic Beach,US,2020-03-15 23:49:56,40.77,-72.85,1,24,46.99,8.05
230,Mayskiy,RU,2020-03-15 23:49:59,47.69,40.1,23,62,21.2,8.95
231,Tambacounda,SN,2020-03-15 23:50:01,13.75,-13.76,92,16,87.8,6.93
232,Constitución,CL,2020-03-15 23:49:07,-35.33,-72.42,0,86,53.1,7.0
233,Hokitika,NZ,2020-03-15 23:50:05,-42.72,170.97,6,76,59.5,4.27
234,Bam,IR,2020-03-15 23:50:07,29.11,58.36,2,36,63.23,0.4
235,La Asuncion,VE,2020-03-15 23:50:09,11.03,-63.86,81,83,78.8,5.82
236,Ariquemes,BR,2020-03-15 23:48:52,-9.91,-63.04,100,98,74.73,3.58
237,Zhaotong,CN,2020-03-15 23:50:13,27.32,103.72,6,92,38.71,5.82
238,Kovdor,RU,2020-03-15 23:50:16,67.57,30.48,100,97,27.7,6.17
239,Lake Charles,US,2020-03-15 23:48:11,30.21,-93.2,1,73,80.6,8.05
240,Sesheke,ZM,2020-03-15 23:50:20,-17.48,24.3,100,100,71.6,1.12
241,Evensk,RU,2020-03-15 23:50:22,61.95,159.23,100,74,13.96,14.38
242,Huejuquilla el Alto,MX,2020-03-15 23:50:24,22.6,-103.87,99,23,81.99,13.58
243,Bowen,AU,2020-03-15 23:50:26,-20.02,148.23,40,74,82.99,12.75
244,Lavrentiya,RU,2020-03-15 23:49:38,65.58,-171.0,48,89,27.88,8.81
245,Taos,US,2020-03-15 23:50:30,36.41,-105.57,1,34,57.2,18.34
246,Narón,ES,2020-03-15 23:50:33,43.52,-8.15,40,81,51.01,8.05
247,Carnarvon,AU,2020-03-15 23:49:34,-24.87,113.63,75,88,75.2,9.17
248,Sobolevo,RU,2020-03-15 23:50:37,54.43,31.9,0,76,27.0,5.08
249,Verkhnyaya Inta,RU,2020-03-15 23:50:39,65.98,60.31,83,74,4.37,8.16
250,Sisimiut,GL,2020-03-15 23:50:41,66.94,-53.67,40,90,-11.27,6.98
251,Luganville,VU,2020-03-15 23:50:43,-15.53,167.17,100,95,77.27,1.79
252,North Battleford,CA,2020-03-15 23:50:45,52.78,-108.28,1,60,10.4,12.75
253,Umluj,SA,2020-03-15 23:50:47,25.02,37.27,0,48,68.67,7.72
254,Ahipara,NZ,2020-03-15 23:50:49,-35.17,173.17,100,67,67.23,6.78
255,Yangambi,CD,2020-03-15 23:50:52,0.81,24.43,100,94,71.98,2.53
256,Havelock,US,2020-03-15 23:46:48,34.88,-76.9,90,87,51.8,13.87
257,Meadow Lake,US,2020-03-15 23:50:56,34.8,-106.54,67,62,68.0,16.11
258,Puerto Maldonado,PE,2020-03-15 23:51:00,-12.6,-69.18,100,100,33.8,2.24
259,Berdigestyakh,RU,2020-03-15 23:51:02,62.1,126.7,82,95,2.32,7.36
260,Roald,NO,2020-03-15 23:51:05,62.58,6.13,96,64,35.6,11.41
261,Ilulissat,GL,2020-03-15 23:51:07,69.22,-51.1,0,46,-14.8,5.82
262,Koumac,NC,2020-03-15 23:49:12,-20.57,164.28,68,74,81.19,5.86
263,Tiksi,RU,2020-03-15 23:51:11,71.69,128.87,100,81,7.47,20.62
264,Laguna,US,2020-03-15 23:51:13,38.42,-121.42,75,54,55.4,11.41
265,Portland,US,2020-03-15 23:50:08,45.52,-122.68,40,42,50.0,26.4
266,Nelson Bay,AU,2020-03-15 23:51:17,-32.72,152.15,20,73,72.0,16.11
267,Acapulco de Juárez,MX,2020-03-15 23:47:56,16.86,-99.89,5,70,86.0,8.05
268,Kislyakovskaya,RU,2020-03-15 23:51:22,46.44,39.67,70,44,30.38,5.1
269,Padang,ID,2020-03-15 23:51:28,-0.95,100.35,84,88,70.21,5.32
270,Alice Springs,AU,2020-03-15 23:51:30,-23.7,133.88,0,18,73.4,9.17
271,Royan,FR,2020-03-15 23:51:32,45.63,-1.03,92,93,51.8,3.36
272,Newport,GB,2020-03-15 23:51:34,51.59,-3.0,12,93,44.01,6.93
273,Calvinia,ZA,2020-03-15 23:51:37,-31.47,19.78,0,67,60.31,19.82
274,Eilat,IL,2020-03-15 23:51:39,29.56,34.95,0,82,64.4,7.36
275,Fort Collins,US,2020-03-15 23:50:17,40.59,-105.08,75,40,55.99,1.68
276,Fort-Shevchenko,KZ,2020-03-15 23:51:43,44.51,50.26,95,58,42.75,11.12
277,Khatanga,RU,2020-03-15 23:49:12,71.97,102.5,89,90,-26.88,10.8
278,Ternate,ID,2020-03-15 23:51:47,0.8,127.4,83,64,81.91,1.83
279,São Filipe,CV,2020-03-15 23:49:32,14.9,-24.5,14,71,71.31,18.43
280,Mocuba,MZ,2020-03-15 23:51:51,-16.84,36.99,12,98,70.14,3.09
281,Hong Kong,HK,2020-03-15 23:51:54,22.29,114.16,20,68,69.01,19.46
282,Kwang Binh,VN,2020-03-15 23:51:56,17.48,106.6,100,91,71.55,1.39
283,Mrągowo,PL,2020-03-15 23:51:58,53.86,21.31,84,44,33.3,18.05
284,Blagoyevo,RU,2020-03-15 23:52:00,63.37,47.92,9,90,13.39,9.37
285,Baruun-Urt,MN,2020-03-15 23:52:02,46.68,113.28,51,81,23.05,12.73
286,Lorengau,PG,2020-03-15 23:52:05,-2.02,147.27,100,74,83.62,8.61
287,Dubbo,AU,2020-03-15 23:52:07,-32.25,148.62,0,68,64.4,13.87
288,Poum,NC,2020-03-15 23:52:09,-20.23,164.02,48,79,82.38,13.15
289,Mahabalipuram,IN,2020-03-15 23:52:13,12.63,80.17,40,83,82.0,3.36
290,Port Pirie,AU,2020-03-15 23:51:43,-33.18,138.02,0,56,68.0,1.12
291,Sungai Penuh,ID,2020-03-15 23:52:20,-2.08,101.38,98,96,64.22,2.62
292,Souillac,MU,2020-03-15 23:52:22,-20.52,57.52,40,88,73.99,3.36
293,Buala,SB,2020-03-15 23:52:24,-8.14,159.59,97,81,82.65,8.7
294,Haverfordwest,GB,2020-03-15 23:52:26,51.8,-4.97,12,93,42.01,5.82
295,Shiyan,CN,2020-03-15 23:52:28,32.65,110.78,97,37,55.56,1.54
296,Luancheng,CN,2020-03-15 23:52:30,37.88,114.65,98,74,35.6,4.47
297,Honningsvåg,NO,2020-03-15 23:51:01,70.98,25.97,20,67,19.4,11.41
298,Byron Bay,AU,2020-03-15 23:52:35,-28.65,153.62,40,57,78.01,14.99
299,Djibouti,DJ,2020-03-15 23:52:37,11.5,42.5,90,83,78.8,5.82
300,Tandil,AR,2020-03-15 23:52:39,-37.32,-59.13,0,62,64.0,1.01
301,Port Lincoln,AU,2020-03-15 23:52:41,-34.73,135.87,75,51,70.32,13.62
302,Kumul,CN,2020-03-15 23:52:43,42.8,93.45,0,30,34.63,2.71
303,Raja,SS,2020-03-15 23:48:07,8.46,25.68,71,24,71.49,3.02
304,Ojinaga,MX,2020-03-15 23:49:00,29.57,-104.42,1,22,86.0,6.93
305,Revelstoke,CA,2020-03-15 23:52:49,50.98,-118.2,1,37,33.8,12.75
306,Yuli,NG,2020-03-15 23:52:51,9.7,10.27,0,13,72.77,6.11
307,Kieta,PG,2020-03-15 23:52:56,-6.22,155.63,100,72,82.94,3.51
308,Monrovia,LR,2020-03-15 23:49:33,6.3,-10.8,99,85,81.57,8.39
309,Sīrjān,IR,2020-03-15 23:53:00,29.45,55.68,0,43,49.96,5.82
310,Verkhoyansk,RU,2020-03-15 23:53:03,67.54,133.38,38,76,-12.17,4.41
311,Sengiley,RU,2020-03-15 23:53:05,53.96,48.79,90,93,32.0,2.24
312,Al Bardīyah,LY,2020-03-15 23:53:07,31.76,25.09,0,77,61.23,1.21
313,Rāver,IN,2020-03-15 23:53:09,21.25,76.03,20,22,65.66,6.29
314,Necochea,AR,2020-03-15 23:53:11,-38.55,-58.74,0,81,55.0,6.35
315,Forsytheganj,BY,2020-03-15 23:53:13,52.63,29.73,0,59,28.81,5.23
316,Nkhotakota,MW,2020-03-15 23:53:15,-12.93,34.3,76,74,80.67,10.65
317,Katangli,RU,2020-03-15 23:53:17,51.71,143.23,0,85,8.98,6.91
318,Hailar,CN,2020-03-15 23:53:20,49.2,119.7,100,81,12.31,4.09
319,Port Elizabeth,ZA,2020-03-15 23:50:03,-33.92,25.57,100,79,64.49,8.88
320,Cottonwood Heights,US,2020-03-15 23:51:32,40.62,-111.81,40,38,64.4,25.28
321,Kirakira,SB,2020-03-15 23:53:26,-10.45,161.92,100,86,79.21,7.87
322,Steinbach am Taunus,DE,2020-03-15 23:53:28,50.17,8.57,83,80,48.0,2.24
323,Beringovskiy,RU,2020-03-15 23:50:26,63.05,179.32,8,84,27.63,4.68
324,Fortuna,US,2020-03-15 23:49:17,40.6,-124.16,40,70,48.99,11.41
325,Kiryat Gat,IL,2020-03-15 23:53:34,31.61,34.76,34,93,59.0,2.24
326,Synya,RU,2020-03-15 23:53:37,65.37,58.04,84,79,6.64,13.27
327,Hithadhoo,MV,2020-03-15 23:53:41,-0.6,73.08,84,62,82.99,5.88
328,Micheweni,TZ,2020-03-15 23:53:43,-4.97,39.83,100,78,84.43,10.47
329,Kraskino,RU,2020-03-15 23:53:45,42.71,130.78,2,61,28.67,25.3
330,Shambu,ET,2020-03-15 23:53:47,9.57,37.1,60,61,62.15,0.78
331,Palamós,ES,2020-03-15 23:53:50,41.85,3.13,75,87,55.99,4.7
332,Lahaina,US,2020-03-15 23:50:49,20.88,-156.68,90,100,84.2,11.41
333,Singapore,SG,2020-03-15 23:50:43,1.29,103.85,40,83,82.4,6.93
334,Kaduqli,SD,2020-03-15 23:53:56,11.02,29.72,51,15,76.53,14.34
335,La Rioja,ES,2020-03-15 23:53:58,42.25,-2.5,90,87,46.4,4.7
336,Paka,MY,2020-03-15 23:54:00,4.64,103.44,40,83,82.4,4.7
337,Neepawa,CA,2020-03-15 23:51:05,50.23,-99.47,90,86,26.6,10.29
338,São João da Barra,BR,2020-03-15 23:54:04,-21.64,-41.05,0,83,78.8,6.93
339,Zyryanka,RU,2020-03-15 23:54:07,65.75,150.85,14,74,-6.23,4.59
340,Nuuk,GL,2020-03-15 23:54:09,64.18,-51.72,20,64,1.4,18.34
341,Mezhdurechensk,RU,2020-03-15 23:54:11,53.69,88.06,100,90,31.66,5.55
342,Kathu,TH,2020-03-15 23:54:13,7.92,98.33,20,74,80.6,6.93
343,Klaksvík,FO,2020-03-15 23:54:15,62.23,-6.59,100,68,28.4,12.1
344,Zhigansk,RU,2020-03-15 23:54:18,66.77,123.37,100,94,2.17,26.62
345,Pandan Niog,PH,2020-03-15 23:54:20,6.23,120.56,50,77,81.36,15.88
346,Riyadh,SA,2020-03-15 23:54:22,24.69,46.72,0,42,64.4,5.82
347,Saharsa,IN,2020-03-15 23:54:24,25.88,86.6,67,50,66.72,5.46
348,Xiongyue,CN,2020-03-15 23:54:26,40.18,122.12,0,21,29.71,7.43
349,Vardø,NO,2020-03-15 23:54:28,70.37,31.11,90,67,19.4,10.29
350,Emba,KZ,2020-03-15 23:50:23,48.83,58.14,99,90,27.39,2.77
351,Kiama,AU,2020-03-15 23:49:41,-34.68,150.87,75,100,64.0,13.87
352,Hualmay,PE,2020-03-15 23:54:37,-11.1,-77.61,98,76,72.79,4.32
353,Richards Bay,ZA,2020-03-15 23:54:39,-28.78,32.04,23,79,78.19,24.49
354,Carballo,ES,2020-03-15 23:54:43,43.21,-8.69,20,76,51.01,8.05
355,Bilibino,RU,2020-03-15 23:54:48,68.05,166.44,1,84,1.15,3.71
356,Chokurdakh,RU,2020-03-15 23:54:50,70.63,147.92,0,84,-15.27,6.06
357,Samarai,PG,2020-03-15 23:54:52,-10.62,150.67,5,58,86.31,4.59
358,Limbang,MY,2020-03-15 23:54:54,4.75,115.0,75,88,80.6,3.36
359,Emilio Carranza,MX,2020-03-15 23:54:56,19.97,-96.61,1,86,75.81,4.85
360,Ayacucho,PE,2020-03-15 23:54:58,-13.16,-74.22,75,40,71.6,4.7
361,Siocon,PH,2020-03-15 23:55:00,7.71,122.14,21,70,79.7,5.08
362,Udachny,RU,2020-03-15 23:55:02,66.42,112.4,90,92,21.2,6.71
363,Itaocara,BR,2020-03-15 23:55:05,-21.67,-42.08,1,95,70.99,3.09
364,Timrå,SE,2020-03-15 23:55:07,62.49,17.33,93,80,42.01,5.82
365,Gobabis,NA,2020-03-15 23:55:09,-22.45,18.97,1,73,71.6,3.36
366,Khanbari,NP,2020-03-15 23:55:11,27.37,87.2,10,42,36.3,6.29
367,Ulaangom,MN,2020-03-15 23:55:13,49.98,92.07,100,89,3.09,0.43
368,Kaitangata,NZ,2020-03-15 23:55:16,-46.28,169.85,69,73,59.0,3.0
369,Bolgatanga,GH,2020-03-15 23:55:18,10.79,-0.85,78,31,84.0,1.52
370,São Gabriel da Cachoeira,BR,2020-03-15 23:50:24,-0.13,-67.09,95,80,80.19,2.77
371,Bongandanga,CD,2020-03-15 23:55:22,1.5,21.05,100,91,73.6,2.19
372,Bariloche,AR,2020-03-15 23:55:24,-41.15,-71.31,0,39,66.2,6.93
373,Hopewell,US,2020-03-15 23:53:13,37.3,-77.29,90,65,48.2,9.17
374,Uyuni,BO,2020-03-15 23:55:28,-20.46,-66.83,33,42,61.86,5.28
375,Noumea,NC,2020-03-15 23:55:30,-22.28,166.46,63,78,82.99,11.41
376,Chicama,PE,2020-03-15 23:55:32,-7.84,-79.15,90,83,73.4,9.17
377,Leh,IN,2020-03-15 23:55:35,34.17,77.58,0,49,8.53,2.17
378,Belinsky,RU,2020-03-15 23:55:37,52.96,43.42,100,89,27.88,13.47
379,Omsukchan,RU,2020-03-15 23:55:39,62.53,155.8,100,90,-0.42,3.31
380,Agadez,NE,2020-03-15 23:55:41,19.75,10.25,65,13,64.69,2.28
381,Moose Factory,CA,2020-03-15 23:55:43,51.26,-80.61,1,71,3.2,3.36
382,Zhanakorgan,KZ,2020-03-15 23:55:45,43.91,67.25,100,26,57.83,11.1
383,Moyobamba,PE,2020-03-15 23:55:47,-6.05,-76.97,100,96,69.22,0.49
384,Taltal,CL,2020-03-15 23:48:52,-25.4,-70.48,27,90,59.16,3.02
385,Saint-Pierre,RE,2020-03-15 23:55:52,-21.34,55.48,100,78,77.0,17.22
386,Camargo,MX,2020-03-15 23:55:54,27.67,-105.17,100,51,69.75,14.88
387,Grenville,GD,2020-03-15 23:55:56,12.12,-61.62,90,94,75.2,13.51
388,Devonport,AU,2020-03-15 23:55:58,-41.17,146.35,65,66,64.0,1.01
389,Nezlobnaya,RU,2020-03-15 23:56:00,44.12,43.4,90,95,32.0,4.47
390,Kiruna,SE,2020-03-15 23:56:02,67.86,20.23,100,85,23.0,8.05
391,Egvekinot,RU,2020-03-15 23:56:04,66.32,-179.17,98,97,12.7,4.59
392,Sola,VU,2020-03-15 23:55:03,-13.88,167.55,100,78,84.49,26.55
393,Nyuksenitsa,RU,2020-03-15 23:56:09,60.41,44.24,0,91,13.69,6.11
394,Lumphat,KH,2020-03-15 23:56:11,13.49,106.98,46,72,75.52,9.06
395,Hof,DE,2020-03-15 23:56:13,50.32,11.92,1,86,41.0,7.56
396,Manicoré,BR,2020-03-15 23:56:15,-5.81,-61.3,75,88,82.4,2.24
397,Meulaboh,ID,2020-03-15 23:56:18,4.14,96.13,57,77,83.12,9.15
398,Duyun,CN,2020-03-15 23:56:22,26.27,107.52,100,90,49.21,3.22
399,Ryōtsu-minato,JP,2020-03-15 23:56:24,38.08,138.43,75,100,39.2,3.36
400,Fastovetskaya,RU,2020-03-15 23:56:26,45.92,40.16,99,49,36.0,9.64
401,Pavlovka,RU,2020-03-15 23:56:28,52.69,47.14,99,86,27.25,11.5
402,Tabou,CI,2020-03-15 23:56:30,4.42,-7.35,97,94,75.65,2.19
403,Kaeo,NZ,2020-03-15 23:56:32,-35.1,173.78,100,76,70.0,3.0
404,Lidingö Municipality,SE,2020-03-15 23:56:35,59.37,18.18,100,87,45.0,12.75
405,Atkinson,US,2020-03-15 23:56:37,42.84,-71.15,1,27,41.0,9.17
406,Polokwane,ZA,2020-03-15 23:56:39,-23.9,29.47,0,82,68.0,1.12
407,Tansa,RO,2020-03-15 23:56:41,46.92,27.23,0,68,28.0,3.36
408,Kavaratti,IN,2020-03-15 23:56:43,10.57,72.64,59,70,82.0,5.86
409,Rayevskiy,RU,2020-03-15 23:56:45,54.07,54.95,97,97,32.38,13.06
410,Joshīmath,IN,2020-03-15 23:56:47,30.57,79.57,0,30,29.16,11.86
411,Podgorenskiy,RU,2020-03-15 23:56:54,50.41,39.64,81,57,27.88,11.18
412,Puerto Escondido,MX,2020-03-15 23:56:36,15.85,-97.07,40,79,84.2,4.7
413,Lebrija,ES,2020-03-15 23:56:58,36.92,-6.08,75,87,61.0,5.82
414,Kabardinka,RU,2020-03-15 23:57:00,44.65,37.94,20,54,30.2,8.95
415,Réo,BF,2020-03-15 23:57:02,12.32,-2.47,100,14,89.74,5.59
416,Huarmey,PE,2020-03-15 23:57:04,-10.07,-78.15,90,63,75.9,3.74
417,Lastoursville,GA,2020-03-15 23:57:07,-0.81,12.73,60,97,71.92,2.26
418,Moerai,PF,2020-03-15 23:57:09,-22.43,-151.33,78,70,80.92,7.65
419,Praia da Vitória,PT,2020-03-15 23:57:11,38.73,-27.07,20,87,57.2,7.29
420,Tanga,TZ,2020-03-15 23:57:13,-5.07,39.1,100,91,78.3,4.65
421,Challapata,BO,2020-03-15 23:57:15,-18.9,-66.77,94,68,54.23,11.59
422,Coyhaique,CL,2020-03-15 23:57:18,-45.58,-72.07,75,63,60.8,6.02
423,Nanortalik,GL,2020-03-15 23:57:20,60.14,-45.24,58,71,20.21,19.89
424,Dingle,PH,2020-03-15 23:57:22,11.0,122.67,0,74,76.51,10.18
425,Abu Samrah,SY,2020-03-15 23:57:24,35.3,37.18,81,86,53.53,6.38
426,Retz,AT,2020-03-15 23:57:28,48.75,15.96,51,40,41.0,9.17
427,Ixtapa,MX,2020-03-15 23:57:33,20.7,-105.2,5,69,78.8,11.41
428,Deer Lake,CA,2020-03-15 23:55:21,49.17,-57.43,5,49,23.0,2.24
429,Sukhobezvodnoye,RU,2020-03-15 23:57:37,57.05,44.89,45,88,21.94,8.95
430,Ormara,PK,2020-03-15 23:57:39,25.21,64.64,86,63,72.41,7.31
431,Huitziltepec,MX,2020-03-15 23:57:41,17.82,-99.47,0,25,96.01,4.12
432,Filingué,NE,2020-03-15 23:57:43,14.35,3.32,77,12,77.92,7.72
433,Rivera,UY,2020-03-15 23:57:45,-30.91,-55.55,100,75,66.9,6.15
434,Abonnema,NG,2020-03-15 23:57:47,4.71,6.79,81,82,82.51,8.59
435,Mendi,PG,2020-03-15 23:57:50,-6.18,143.65,95,94,57.65,1.43
436,Freeport,US,2020-03-15 23:53:48,40.66,-73.58,1,23,51.01,6.93
437,Kungurtug,RU,2020-03-15 23:57:54,50.6,97.52,100,79,16.74,2.71
438,Galanta,SK,2020-03-15 23:57:56,48.19,17.73,56,63,39.99,5.82
439,Middle Island,US,2020-03-15 23:57:58,40.88,-72.94,1,56,48.0,3.36
440,Nadvoitsy,RU,2020-03-15 23:58:00,63.87,34.32,100,94,30.49,17.69
441,Nouadhibou,MR,2020-03-15 23:58:02,20.93,-17.03,0,68,64.4,20.8
442,Aberdeen,GB,2020-03-15 23:56:34,57.14,-2.1,29,74,39.99,11.41
443,Aitape,PG,2020-03-15 23:58:07,-3.14,142.35,98,77,79.18,15.32
444,Murray Bridge,AU,2020-03-15 23:58:09,-35.12,139.27,32,55,73.0,5.01
445,Caconda,AO,2020-03-15 23:58:11,-13.73,15.07,100,97,63.1,4.94
446,Grand-Santi,GF,2020-03-15 23:58:13,4.25,-54.38,84,59,82.67,4.68
447,Ugoofaaru,MV,2020-03-15 23:58:16,5.67,73.0,33,73,83.23,6.15
448,Narsaq,GL,2020-03-15 23:58:18,60.92,-46.05,56,45,23.0,5.82
449,Buraidah,SA,2020-03-15 23:58:20,26.33,43.98,0,72,60.8,6.93
450,Asău,RO,2020-03-15 23:58:22,46.43,26.4,0,58,25.0,2.24
451,Ambilobe,MG,2020-03-15 23:58:24,-13.2,49.05,100,90,78.57,5.39
452,Linhai,CN,2020-03-15 23:58:26,28.85,121.12,15,63,54.0,3.65
453,Shirokiy,RU,2020-03-15 23:58:28,49.76,129.52,55,90,10.85,5.37
454,Okha,RU,2020-03-15 23:58:30,53.57,142.95,70,95,1.8,12.03
455,San Policarpo,PH,2020-03-15 23:58:32,12.18,125.51,21,70,80.19,9.57
456,Port Hedland,AU,2020-03-15 23:58:35,-20.32,118.57,0,79,84.2,5.82
457,New Iberia,US,2020-03-15 23:58:37,30.0,-91.82,1,65,80.6,6.93
458,Datong,CN,2020-03-15 23:58:39,40.09,113.29,100,36,39.52,7.43
459,Kahului,US,2020-03-15 23:58:41,20.89,-156.47,90,100,84.2,11.41
460,Artyom,AZ,2020-03-15 23:58:43,40.47,50.33,40,100,42.8,9.17
461,Balikpapan,ID,2020-03-15 23:57:17,-1.27,116.83,20,88,80.6,4.7
462,Río Cuarto,AR,2020-03-15 23:56:01,-33.13,-64.35,90,100,57.2,8.05
463,Kaseda-shirakame,JP,2020-03-15 23:58:49,31.42,130.32,20,36,48.2,17.22
464,Waingapu,ID,2020-03-15 23:58:52,-9.66,120.26,52,71,83.57,5.93
465,Yelizovo,RU,2020-03-15 23:58:54,53.19,158.38,90,100,33.8,20.13
466,Chuguyevka,RU,2020-03-15 23:58:56,44.17,133.86,100,90,18.3,4.5
467,Dondo,MZ,2020-03-15 23:58:58,-19.61,34.74,11,97,72.52,2.3
468,Lumsden,CA,2020-03-15 23:59:02,50.65,-104.87,90,73,21.99,10.29
469,Hambantota,LK,2020-03-15 23:59:04,6.12,81.12,8,79,79.07,6.82
470,Balkanabat,TM,2020-03-15 23:59:07,39.51,54.37,0,79,49.6,1.66
471,Masinigudi,IN,2020-03-15 23:59:09,11.57,76.67,5,71,62.51,2.44
472,Guilin,CN,2020-03-15 23:59:11,25.28,110.29,90,87,57.2,4.47
473,Tailai,CN,2020-03-15 23:59:13,46.38,123.4,0,33,21.13,13.71
474,Cabedelo,BR,2020-03-15 23:59:15,-6.98,-34.83,40,94,77.0,3.36
475,Bama,NG,2020-03-15 23:59:17,11.52,13.69,0,19,62.89,1.74
476,Alta Floresta,BR,2020-03-15 23:59:19,-9.88,-56.09,100,96,72.79,3.47
477,Muros,ES,2020-03-15 23:59:22,42.78,-9.06,40,100,51.01,2.24
478,Ucluelet,CA,2020-03-15 23:54:33,48.93,-125.55,5,39,48.0,11.41
479,Tilichiki,RU,2020-03-15 23:59:26,60.47,166.1,100,94,20.32,10.83
480,Mahanoro,MG,2020-03-15 23:59:28,-19.9,48.8,26,80,78.73,10.02
481,Kisangani,CD,2020-03-15 23:59:30,0.52,25.2,98,92,72.14,2.04
482,São Miguel do Araguaia,BR,2020-03-15 23:59:32,-13.28,-50.16,79,96,73.51,5.82
483,Camopi,GF,2020-03-15 23:59:34,3.17,-52.32,99,88,74.77,5.82
484,Rovaniemi,FI,2020-03-15 23:59:36,66.5,25.72,90,100,30.2,8.05
485,Saint-André-Avellin,CA,2020-03-15 23:59:39,45.72,-75.07,20,32,28.4,5.82
486,Flin Flon,CA,2020-03-15 23:59:41,54.77,-101.86,90,72,17.6,11.41
487,Aden,YE,2020-03-15 23:55:44,12.78,45.04,83,77,76.28,4.7
488,Kulhudhuffushi,MV,2020-03-15 23:55:31,6.62,73.07,45,74,82.78,4.21
489,Maceió,BR,2020-03-15 23:59:47,-9.67,-35.74,75,94,75.2,3.36
490,Gayéri,BF,2020-03-15 23:59:51,12.65,0.49,82,12,82.56,10.07
491,La Ciotat,FR,2020-03-15 23:59:55,43.17,5.6,0,75,55.4,5.82
492,Boyuibe,BO,2020-03-15 23:59:58,-20.42,-63.28,90,69,75.2,9.17
493,Henties Bay,NA,2020-03-16 00:00:00,-22.12,14.28,2,93,62.01,3.44
494,Felanitx,ES,2020-03-16 00:00:02,39.47,3.15,20,93,55.4,6.93
495,Dwārka,IN,2020-03-16 00:00:04,22.24,68.97,100,56,75.96,21.56
496,Bilma,NE,2020-03-16 00:00:07,18.69,12.92,42,12,64.49,3.85
497,Amuntai,ID,2020-03-16 00:00:09,-2.42,115.25,16,93,76.35,0.63
498,Bambanglipuro,ID,2020-03-16 00:00:11,-7.95,110.28,90,83,78.51,2.82
499,Olinda,BR,2020-03-16 00:00:13,-8.01,-34.86,75,88,78.8,9.17
500,Talaya,RU,2020-03-16 00:00:15,61.38,152.75,91,83,-5.93,3.65
501,Berezovyy,RU,2020-03-16 00:00:20,51.67,135.7,0,62,11.91,3.6
502,Esmeraldas,BR,2020-03-16 00:00:19,-19.76,-44.31,3,57,75.2,6.93
503,Quesnel,CA,2020-03-15 23:56:30,53.0,-122.5,1,30,26.6,0.65
504,Apozol,MX,2020-03-16 00:00:27,21.48,-103.1,99,25,81.19,6.67
505,Atambua,ID,2020-03-16 00:00:29,-9.11,124.89,93,68,80.28,1.16
506,Severo-Kuril'sk,RU,2020-03-16 00:00:31,50.68,156.12,100,97,28.85,34.9
507,Laas,IT,2020-03-16 00:00:33,46.62,10.7,75,85,32.0,2.24
508,Burē,ET,2020-03-16 00:00:36,10.7,37.07,84,34,63.68,2.91
509,Sri Aman,MY,2020-03-16 00:00:38,1.24,111.46,99,100,75.2,3.22
510,Nyurba,RU,2020-03-16 00:00:40,63.28,118.33,100,95,31.82,7.27
511,Ngunguru,NZ,2020-03-16 00:00:42,-35.62,174.5,100,76,70.0,3.0
512,Manokwari,ID,2020-03-16 00:00:44,-0.87,134.08,100,69,76.86,2.35
513,Margate,GB,2020-03-16 00:00:46,51.38,1.39,79,93,48.0,2.24
514,Okhotsk,RU,2020-03-16 00:00:48,59.38,143.3,82,91,3.22,8.08
515,Port Hardy,CA,2020-03-16 00:00:50,50.7,-127.42,20,36,44.6,8.05
516,São José da Coroa Grande,BR,2020-03-16 00:00:52,-8.9,-35.15,91,76,82.85,10.27
517,Ulvik,NO,2020-03-16 00:00:55,60.57,6.92,99,96,37.0,3.09
518,Erenhot,CN,2020-03-16 00:00:57,43.65,111.98,0,52,33.01,14.29
519,Neuquén,AR,2020-03-16 00:00:59,-38.95,-68.06,0,27,77.0,4.7
520,Jinchang,CN,2020-03-16 00:01:01,38.5,102.17,97,46,32.59,6.06
521,Port Hawkesbury,CA,2020-03-16 00:01:03,45.62,-61.35,90,79,27.0,11.41
522,Chimoré,BO,2020-03-16 00:01:05,-16.98,-65.13,99,68,83.44,2.59
523,Imbituba,BR,2020-03-16 00:00:35,-28.24,-48.67,23,61,78.8,4.7
524,Plettenberg Bay,ZA,2020-03-16 00:01:10,-34.05,23.37,100,86,61.84,6.08
525,Puri,IN,2020-03-16 00:01:12,19.8,85.85,40,94,75.2,2.08
526,Cabo San Lucas,MX,2020-03-15 23:57:20,22.89,-109.91,75,64,73.0,5.82
527,Cross Lanes,US,2020-03-16 00:01:16,38.42,-81.79,90,86,44.01,3.0
528,Uribia,CO,2020-03-16 00:01:18,11.71,-72.27,17,67,78.66,11.88
529,Novovelichkovskaya,RU,2020-03-16 00:01:20,45.28,38.84,88,43,33.8,13.42
530,Maniitsoq,GL,2020-03-16 00:01:22,65.42,-52.9,38,67,0.77,10.6
531,Najrān,SA,2020-03-16 00:01:09,17.49,44.13,0,37,71.6,1.72
532,Flinders,AU,2020-03-15 23:57:01,-34.58,150.86,75,100,66.0,13.87
533,Starkville,US,2020-03-15 23:58:36,33.45,-88.82,90,87,55.0,8.05
534,Vågåmo,NO,2020-03-16 00:01:37,61.88,9.1,62,87,14.65,9.91
535,Bulolo,PG,2020-03-16 00:01:41,-7.2,146.65,91,64,79.88,1.36
536,Patrocínio,BR,2020-03-15 23:57:53,-18.94,-46.99,100,55,72.0,4.18
537,Labuhan,ID,2020-03-16 00:01:46,-6.88,112.21,100,85,77.45,4.74
538,Nagua,DO,2020-03-16 00:01:48,19.38,-69.85,40,83,75.2,13.87
539,Villazón,BO,2020-03-16 00:01:50,-22.09,-65.59,83,73,54.88,15.05
540,Kuala Lipis,MY,2020-03-16 00:01:52,4.18,102.05,23,97,71.65,0.58
541,Kontagora,NG,2020-03-16 00:01:54,10.4,5.47,100,9,76.03,4.05
542,Leer,SS,2020-03-16 00:01:56,8.3,30.14,35,23,78.12,2.15
543,Tonantins,BR,2020-03-16 00:01:58,-2.87,-67.8,70,92,77.31,2.35
544,Doksy,CZ,2020-03-16 00:02:01,50.56,14.66,42,60,39.0,6.93
545,Medeiros Neto,BR,2020-03-16 00:02:03,-17.37,-40.22,89,91,72.81,3.47
546,Xiangxiang,CN,2020-03-16 00:02:05,27.73,112.53,100,86,55.98,1.28
