,City,Country,Date,Latitude,Longitude,Cloudiness (%),Humidity (%),Max Temp (F),Wind Speed (mph)
0,Yārāda,IN,2020-03-16 03:13:50,17.65,83.27,20,78,80.6,2.24
1,Hermanus,ZA,2020-03-16 03:13:52,-34.42,19.23,50,77,64.63,32.01
2,Vidim,RU,2020-03-16 03:13:55,56.41,103.11,92,91,28.47,8.81
3,Castro,BR,2020-03-16 03:13:57,-24.79,-50.01,13,86,65.79,3.42
4,City of San Pedro,PH,2020-03-16 03:13:59,14.35,121.02,75,62,86.0,5.82
5,Zhigansk,RU,2020-03-16 03:14:03,66.77,123.37,100,93,4.03,25.43
6,Willowmore,ZA,2020-03-16 03:14:07,-33.29,23.49,100,88,52.57,6.29
7,Bandarbeyla,SO,2020-03-16 03:11:52,9.49,50.81,100,71,79.02,6.4
8,Faya,SA,2020-03-16 03:14:14,18.39,42.45,16,93,55.4,3.53
9,Hilo,US,2020-03-16 03:14:16,19.73,-155.09,90,74,78.8,13.87
10,Vaini,TO,2020-03-16 03:14:18,-21.2,-175.2,90,83,84.2,12.75
11,Sitka,US,2020-03-16 03:12:30,57.05,-135.33,1,70,42.8,12.75
12,Cape Town,ZA,2020-03-16 03:10:43,-33.93,18.42,20,68,64.4,13.87
13,Kaniama,CD,2020-03-16 03:14:24,-7.57,24.18,100,95,66.45,2.35
14,Teya,RU,2020-03-16 03:14:26,60.38,92.63,100,91,30.18,8.63
15,Talaya,RU,2020-03-16 03:14:28,61.38,152.75,100,78,2.3,7.11
16,Camargo,MX,2020-03-16 03:14:31,27.67,-105.17,29,53,64.15,4.09
17,Gorontalo,ID,2020-03-16 03:14:33,0.54,123.06,2,48,90.23,1.05
18,Mataura,NZ,2020-03-16 03:14:35,-46.19,168.86,97,68,55.0,14.0
19,Goderich,CA,2020-03-16 03:13:39,43.75,-81.72,13,73,28.99,5.01
20,Ipirá,BR,2020-03-16 03:14:39,-12.16,-39.74,100,84,74.35,6.8
21,Vila Franca do Campo,PT,2020-03-16 03:14:41,37.72,-25.43,20,76,50.0,2.24
22,Beloha,MG,2020-03-16 03:14:44,-25.17,45.05,51,97,70.34,8.3
23,Kuminskiy,RU,2020-03-16 03:14:46,58.67,66.57,0,84,21.0,9.35
24,Chihuahua,MX,2020-03-16 03:12:12,28.5,-106.0,90,30,71.6,10.29
25,Clyde River,CA,2020-03-16 03:14:50,70.47,-68.59,20,67,-22.0,17.22
26,Qaanaaq,GL,2020-03-16 03:11:42,77.48,-69.36,100,51,-2.33,6.87
27,Loukhi,RU,2020-03-16 03:14:54,66.08,33.04,100,95,32.83,13.82
28,Ben Gardane,TN,2020-03-16 03:14:56,33.14,11.22,0,94,55.0,4.18
29,Kapaa,US,2020-03-16 03:11:45,22.08,-159.32,75,78,78.8,8.05
30,Havre-St-Pierre,CA,2020-03-16 03:15:01,50.23,-63.6,90,47,15.8,17.22
31,Tyukhtet,RU,2020-03-16 03:15:03,56.54,89.3,100,89,36.46,13.49
32,Muzhi,RU,2020-03-16 03:15:05,65.37,64.67,42,76,-3.14,6.38
33,Tilichiki,RU,2020-03-16 03:13:27,60.47,166.1,100,96,28.92,23.58
34,Lavrentiya,RU,2020-03-16 03:15:09,65.58,-171.0,0,83,25.83,7.25
35,Bambous Virieux,MU,2020-03-16 03:15:11,-20.34,57.76,75,94,75.0,2.24
36,Port Alfred,ZA,2020-03-16 03:15:13,-33.59,26.89,100,98,62.01,10.76
37,Tuatapere,NZ,2020-03-16 03:15:15,-46.13,167.68,78,68,55.0,14.0
38,Torbay,CA,2020-03-16 03:12:44,47.67,-52.73,40,73,25.0,8.05
39,Mar del Plata,AR,2020-03-16 03:15:22,-38.0,-57.56,40,87,60.01,6.78
40,Esperance,AU,2020-03-16 03:15:24,-33.87,121.9,75,65,77.0,8.05
41,Upernavik,GL,2020-03-16 03:15:26,72.79,-56.15,0,78,-22.16,6.15
42,Petropavlovka,RU,2020-03-16 03:15:28,50.61,105.32,97,70,33.49,4.5
43,Tchibanga,GA,2020-03-16 03:15:30,-2.85,11.03,100,95,74.52,1.01
44,Barrow,US,2020-03-16 03:11:52,71.29,-156.79,90,85,14.0,16.11
45,Boa Vista,BR,2020-03-16 03:15:35,2.82,-60.67,69,58,84.2,9.17
46,Guerrero Negro,MX,2020-03-16 03:15:37,27.98,-114.06,0,72,60.51,15.5
47,Punta Arenas,CL,2020-03-16 03:15:39,-53.15,-70.92,75,87,55.4,16.11
48,Albany,US,2020-03-16 03:11:02,42.6,-73.97,1,50,30.0,11.41
49,Grand Gaube,MU,2020-03-16 03:15:43,-20.01,57.66,75,94,75.0,2.24
50,Port Elizabeth,ZA,2020-03-16 03:11:43,-33.92,25.57,90,93,62.6,6.93
51,Ruwi,OM,2020-03-16 03:15:47,23.6,58.55,75,88,71.6,2.24
52,Longyearbyen,SJ,2020-03-16 03:15:49,78.22,15.64,90,84,-0.4,4.7
53,Arraial do Cabo,BR,2020-03-16 03:15:52,-22.97,-42.03,0,83,77.9,26.57
54,Zeya,RU,2020-03-16 03:15:54,53.75,127.27,84,82,15.58,2.51
55,Ancud,CL,2020-03-16 03:15:56,-41.87,-73.82,1,81,53.6,5.82
56,Hithadhoo,MV,2020-03-16 03:16:02,-0.6,73.08,100,62,83.16,5.84
57,Chapais,CA,2020-03-16 03:16:04,49.78,-74.85,1,83,-13.0,0.89
58,Taixing,CN,2020-03-16 03:16:06,32.17,120.01,47,49,60.01,1.99
59,Noyabrsk,RU,2020-03-16 03:11:13,63.2,75.45,100,93,-1.26,23.78
60,Tasiilaq,GL,2020-03-16 03:16:14,65.61,-37.64,100,50,8.6,14.99
61,Chokurdakh,RU,2020-03-16 03:16:18,70.63,147.92,0,87,-9.85,5.7
62,Yar-Sale,RU,2020-03-16 03:16:20,66.83,70.83,0,95,-10.44,4.43
63,Rikitea,PF,2020-03-16 03:16:22,-23.12,-134.97,3,79,79.63,12.71
64,Atuona,PF,2020-03-16 03:16:24,-9.8,-139.03,0,65,82.2,8.75
65,Zhuanghe,CN,2020-03-16 03:16:27,39.7,122.99,1,54,33.82,14.45
66,Hobart,AU,2020-03-16 03:16:10,-42.88,147.33,20,52,66.99,10.29
67,Bethel,US,2020-03-16 03:15:49,41.37,-73.41,1,32,43.0,4.7
68,Kingman,US,2020-03-16 03:16:33,35.19,-114.05,1,49,68.0,9.17
69,Abbeville,FR,2020-03-16 03:16:35,50.1,1.83,82,93,42.8,5.82
70,Dandong,CN,2020-03-16 03:16:39,40.13,124.39,0,32,36.93,10.8
71,Iguape,BR,2020-03-16 03:16:41,-24.71,-47.56,0,98,71.62,1.97
72,Ushuaia,AR,2020-03-16 03:13:00,-54.8,-68.3,40,71,53.6,5.82
73,Grootfontein,NA,2020-03-16 03:16:46,-19.57,18.12,100,74,69.89,1.61
74,Lorengau,PG,2020-03-16 03:16:48,-2.02,147.27,100,72,84.16,6.6
75,Nikolskoye,RU,2020-03-16 03:16:50,59.7,30.79,90,64,33.8,11.18
76,Næstved,DK,2020-03-16 03:16:52,55.23,11.76,100,81,46.99,10.29
77,Marawi,PH,2020-03-16 03:16:54,8.0,124.29,32,76,81.0,8.01
78,Saint-Gilles,FR,2020-03-16 03:16:56,43.68,4.43,0,75,55.4,2.24
79,Wakkanai,JP,2020-03-16 03:16:58,45.41,141.67,40,68,28.4,4.7
80,Yellowknife,CA,2020-03-16 03:15:07,62.46,-114.35,20,66,10.4,18.34
81,Airai,TL,2020-03-16 03:17:05,-8.93,125.41,97,58,80.28,5.86
82,Aloleng,PH,2020-03-16 03:17:07,16.13,119.78,0,41,91.17,9.95
83,Waitati,NZ,2020-03-16 03:17:09,-45.75,170.57,88,88,54.0,24.0
84,Lagoa,PT,2020-03-16 03:17:11,39.05,-27.98,0,75,60.76,14.0
85,Avarua,CK,2020-03-16 03:17:13,-21.21,-159.78,100,79,84.2,6.93
86,Honiara,SB,2020-03-16 03:17:09,-9.43,159.95,75,84,86.0,6.93
87,São Filipe,CV,2020-03-16 03:17:17,14.9,-24.5,14,72,70.61,20.02
88,Hofn,IS,2020-03-16 03:17:20,64.25,-15.21,100,67,41.2,34.27
89,Bluff,NZ,2020-03-16 03:17:22,-46.6,168.33,67,68,55.0,14.0
90,Amapá,BR,2020-03-16 03:17:24,1.0,-52.0,100,99,69.66,1.57
91,Tateyama,JP,2020-03-16 03:17:28,34.98,139.87,75,26,59.0,16.11
92,Tamasane,BW,2020-03-16 03:17:30,-22.42,27.4,2,63,69.73,5.93
93,Port Hardy,CA,2020-03-16 03:17:18,50.7,-127.42,5,48,41.0,4.7
94,Bengkulu,ID,2020-03-16 03:17:35,-3.8,102.27,74,58,88.81,1.43
95,Port Blair,IN,2020-03-16 03:17:06,11.67,92.75,84,73,83.52,11.01
96,Saint-Philippe,RE,2020-03-16 03:17:39,-21.36,55.77,90,78,78.8,10.29
97,Acapulco de Juárez,MX,2020-03-16 03:17:41,16.86,-99.89,20,78,82.4,8.05
98,Hervey Bay,AU,2020-03-16 03:17:43,-25.3,152.85,40,48,82.4,18.34
99,Cabo San Lucas,MX,2020-03-16 03:17:45,22.89,-109.91,75,72,70.0,3.36
100,Comodoro Rivadavia,AR,2020-03-16 03:15:01,-45.87,-67.5,81,67,62.6,1.12
101,Ketchikan,US,2020-03-16 03:17:51,55.34,-131.65,1,64,44.6,14.99
102,Tuktoyaktuk,CA,2020-03-16 03:17:54,69.45,-133.04,20,76,-7.6,5.82
103,San Cristobal,VE,2020-03-16 03:17:13,7.77,-72.22,20,69,77.0,4.7
104,Mengyin,CN,2020-03-16 03:17:58,35.71,117.93,100,46,49.64,10.04
105,Morant Bay,JM,2020-03-16 03:18:00,17.88,-76.41,20,65,80.6,3.36
106,Busselton,AU,2020-03-16 03:18:02,-33.65,115.33,91,69,72.0,1.99
107,Portales,US,2020-03-16 03:18:04,34.19,-103.33,90,100,45.0,6.93
108,Sechura,PE,2020-03-16 03:18:07,-5.56,-80.82,99,77,76.78,7.58
109,Homer,US,2020-03-16 03:14:03,59.64,-151.55,40,69,33.8,5.82
110,Sayyan,YE,2020-03-16 03:18:00,15.17,44.32,96,79,52.23,0.69
111,Baijiantan,CN,2020-03-16 03:18:13,45.63,85.18,0,40,42.75,5.86
112,Saskylakh,RU,2020-03-16 03:18:15,71.92,114.08,100,95,-12.32,20.71
113,Margate,GB,2020-03-16 03:13:29,51.38,1.39,18,93,46.0,5.82
114,Sola,VU,2020-03-16 03:18:19,-13.88,167.55,100,77,84.47,23.49
115,Saint George,US,2020-03-16 03:18:22,37.1,-113.58,1,66,55.99,9.17
116,Bangkalan,ID,2020-03-16 03:18:24,-7.05,112.74,0,65,87.84,4.74
117,Puerto Ayora,EC,2020-03-16 03:18:26,-0.74,-90.35,20,83,79.0,8.05
118,Borovoy,RU,2020-03-16 03:18:28,55.43,86.08,40,64,39.2,17.9
119,East London,ZA,2020-03-16 03:18:30,-33.02,27.91,97,71,69.26,11.86
120,Lompoc,US,2020-03-16 03:17:57,34.64,-120.46,90,87,54.0,16.11
121,Emilio Carranza,MX,2020-03-16 03:18:34,19.97,-96.61,3,90,75.16,0.92
122,Kyzyl-Suu,KG,2020-03-16 03:18:37,42.34,78.0,0,49,35.71,3.91
123,Mareeba,AU,2020-03-16 03:18:39,-17.0,145.43,40,45,87.8,9.17
124,Mossamedes,AO,2020-03-16 03:18:41,-15.2,12.15,100,78,75.52,5.86
125,Ribeira Grande,PT,2020-03-16 03:08:53,38.52,-28.7,4,79,56.34,9.33
126,New Norfolk,AU,2020-03-16 03:17:16,-42.78,147.06,20,52,66.99,10.29
127,St. George's,GD,2020-03-16 03:18:54,12.06,-61.75,75,88,77.0,12.21
128,Samarai,PG,2020-03-16 03:11:40,-10.62,150.67,2,51,90.34,3.89
129,Zaraza,VE,2020-03-16 03:18:59,9.35,-65.32,0,84,73.44,11.3
130,Jamestown,US,2020-03-16 03:19:05,42.1,-79.24,1,46,30.0,9.17
131,Saint Paul Harbor,US,2020-03-16 03:19:11,57.79,-152.41,40,64,39.2,9.17
132,Yangambi,CD,2020-03-16 03:19:14,0.81,24.43,67,97,69.8,1.3
133,Bud,US,2020-03-16 03:12:39,39.45,-86.18,90,65,42.01,4.7
134,Price,US,2020-03-16 03:19:18,39.6,-110.81,75,52,46.4,4.7
135,Tegul'det,RU,2020-03-16 03:19:20,57.31,88.17,100,87,36.54,15.05
136,Dzhebariki-Khaya,RU,2020-03-16 03:19:22,62.22,135.8,0,78,2.93,2.19
137,Yatou,CN,2020-03-16 03:19:24,37.15,122.38,17,46,38.68,11.05
138,Bonavista,CA,2020-03-16 03:19:26,48.65,-53.11,0,79,24.01,5.99
139,Constantine,DZ,2020-03-16 03:13:36,36.37,6.61,75,81,51.8,2.24
140,Berlevåg,NO,2020-03-16 03:12:15,70.86,29.09,100,64,29.03,11.18
141,Kysyl-Syr,RU,2020-03-16 03:19:33,63.9,122.76,100,95,5.04,12.55
142,Raduzhny,RU,2020-03-16 03:19:35,62.1,77.47,100,93,12.61,14.23
143,Alvorada,BR,2020-03-16 03:19:37,-12.48,-49.12,100,98,69.85,3.02
144,Muroto-misakicho,JP,2020-03-16 03:19:39,33.28,134.15,75,49,48.2,13.87
145,Machalí,CL,2020-03-16 03:19:41,-34.18,-70.67,0,41,51.46,2.08
146,Griffith,US,2020-03-16 03:19:24,41.53,-87.42,5,80,35.6,6.93
147,General Pico,AR,2020-03-16 03:11:29,-35.66,-63.76,33,57,60.55,4.45
148,Salekhard,RU,2020-03-16 03:19:48,66.53,66.6,95,93,-6.45,7.49
149,Lebu,CL,2020-03-16 03:19:50,-37.62,-73.65,0,76,56.28,8.46
150,Deesa,IN,2020-03-16 03:19:52,24.25,72.17,99,21,74.28,9.35
151,Ferme-Neuve,CA,2020-03-16 03:19:54,46.7,-75.45,0,72,14.63,4.81
152,Cayenne,GF,2020-03-16 03:09:59,4.93,-52.33,100,88,77.0,1.12
153,Shīeli,KZ,2020-03-16 03:19:58,44.17,66.75,100,31,58.41,16.17
154,Norman Wells,CA,2020-03-16 03:16:07,65.28,-126.83,20,72,14.0,14.99
155,Ponta do Sol,PT,2020-03-16 03:20:05,32.67,-17.1,75,82,60.8,11.41
156,Bredasdorp,ZA,2020-03-16 03:20:07,-34.53,20.04,76,88,62.6,11.41
157,Bagan,RU,2020-03-16 03:20:09,54.1,77.66,45,87,29.88,18.05
158,Kuril'sk,RU,2020-03-16 03:20:11,45.23,147.88,50,60,25.99,9.33
159,Luwuk,ID,2020-03-16 03:16:14,-0.95,122.79,54,74,82.49,5.12
160,George Town,MY,2020-03-16 03:17:52,5.41,100.34,20,62,89.6,6.93
161,Karratha,AU,2020-03-16 03:20:20,-20.74,116.85,0,70,86.41,8.21
162,Cartagena,CO,2020-03-16 03:20:21,10.4,-75.51,40,78,80.6,16.11
163,Pevek,RU,2020-03-16 03:20:24,69.7,170.31,0,82,7.54,12.26
164,Morgan City,US,2020-03-16 03:20:26,29.7,-91.21,1,100,71.6,3.36
165,Papetoai,PF,2020-03-16 03:20:28,-17.5,-149.87,40,70,86.0,12.75
166,Hailar,CN,2020-03-16 03:20:30,49.2,119.7,100,83,19.92,6.44
167,Onguday,RU,2020-03-16 03:20:32,50.75,86.15,100,62,29.71,7.23
168,Melfort,CA,2020-03-16 03:20:35,52.87,-104.62,40,78,10.4,12.75
169,Hambantota,LK,2020-03-16 03:20:39,6.12,81.12,24,83,80.6,4.7
170,Kulhudhuffushi,MV,2020-03-16 03:20:41,6.62,73.07,79,74,82.99,5.57
171,Hong Kong,HK,2020-03-16 03:20:43,22.29,114.16,20,56,73.99,16.11
172,Nanortalik,GL,2020-03-16 03:20:45,60.14,-45.24,19,65,18.41,24.92
173,Maputo,MZ,2020-03-16 03:20:47,-25.97,32.59,75,94,75.2,8.05
174,Al Bardīyah,LY,2020-03-16 03:20:06,31.76,25.09,0,76,60.98,1.23
175,San Policarpo,PH,2020-03-16 03:13:53,12.18,125.51,44,67,81.73,8.75
176,Smithers,CA,2020-03-16 03:18:43,54.78,-127.17,5,42,28.4,3.36
177,Pisco,PE,2020-03-16 03:20:56,-13.7,-76.22,40,83,73.4,5.82
178,Tromsø,NO,2020-03-16 03:17:21,69.65,18.96,75,68,26.6,19.46
179,Progreso,MX,2020-03-16 03:21:00,21.28,-89.67,75,69,80.6,11.41
180,Mount Hagen,PG,2020-03-16 03:21:03,-5.86,144.23,40,64,75.2,4.7
181,Marsh Harbour,BS,2020-03-16 03:21:05,26.54,-77.06,0,73,72.45,10.94
182,Tiksi,RU,2020-03-16 03:21:07,71.69,128.87,100,81,9.09,20.58
183,Palimé,TG,2020-03-16 03:21:09,6.9,0.63,70,94,74.19,2.13
184,Oodweyne,SO,2020-03-16 03:21:11,9.41,45.06,4,91,64.11,6.38
185,Sokyryany,UA,2020-03-16 03:21:16,48.45,27.42,0,49,30.54,1.86
186,Souillac,MU,2020-03-16 03:21:18,-20.52,57.52,75,94,75.99,2.24
187,Kruszwica,PL,2020-03-16 03:21:20,52.68,18.33,96,51,36.0,9.17
188,Severo-Kuril'sk,RU,2020-03-16 03:17:58,50.68,156.12,97,95,24.84,46.73
189,Bathsheba,BB,2020-03-16 03:21:26,13.22,-59.52,40,78,77.0,8.05
190,Biltine,TD,2020-03-16 03:18:35,14.53,20.92,26,21,67.33,7.74
191,Los Llanos de Aridane,ES,2020-03-16 03:17:13,28.66,-17.92,20,68,64.4,13.87
192,‘Āhuimanu,US,2020-03-16 03:11:46,21.44,-157.84,75,78,78.8,9.17
193,Salinas,US,2020-03-16 03:21:04,36.68,-121.66,90,87,52.0,2.26
194,Grindavik,IS,2020-03-16 03:21:39,63.84,-22.43,90,93,35.6,33.33
195,San Rafael,AR,2020-03-16 03:21:41,-34.62,-68.33,0,60,58.33,4.12
196,Kushima,JP,2020-03-16 03:21:43,31.46,131.23,20,27,53.6,9.17
197,Katsuura,JP,2020-03-16 03:17:38,35.13,140.3,75,26,57.2,16.11
198,Saint-Joseph,RE,2020-03-16 03:10:35,-21.37,55.62,13,60,75.2,9.17
199,Jérémie,HT,2020-03-16 03:21:52,18.65,-74.12,45,91,69.12,6.24
200,Thompson,CA,2020-03-16 03:17:23,55.74,-97.86,90,85,15.8,14.99
201,Carutapera,BR,2020-03-16 03:21:56,-1.2,-46.02,100,85,78.42,8.68
202,Tinskoy,RU,2020-03-16 03:21:58,56.15,96.92,100,99,32.52,6.78
203,Nosy Varika,MG,2020-03-16 03:22:00,-20.58,48.53,1,92,70.88,3.8
204,Jining,CN,2020-03-16 03:22:02,35.41,116.58,100,46,56.41,14.72
205,Sühbaatar,MN,2020-03-16 03:22:05,50.23,106.21,93,80,32.74,3.8
206,Cherskiy,RU,2020-03-16 03:17:32,68.75,161.3,94,85,8.53,6.58
207,Chui,UY,2020-03-16 03:22:13,-33.7,-53.46,99,74,61.84,4.61
208,Khatanga,RU,2020-03-16 03:22:15,71.97,102.5,19,93,-25.28,11.5
209,Vardø,NO,2020-03-16 03:22:17,70.37,31.11,100,57,26.46,5.1
210,New Glasgow,CA,2020-03-16 03:22:20,45.58,-62.65,82,86,21.0,1.99
211,San Joaquin,VE,2020-03-16 03:22:22,10.26,-67.79,63,84,75.07,8.41
212,Udine,IT,2020-03-16 03:22:15,46.06,13.24,0,59,45.0,3.36
213,Northam,GB,2020-03-16 03:22:26,51.03,-4.22,0,86,43.0,5.01
214,Viedma,AR,2020-03-16 03:22:30,-40.81,-63.0,0,48,62.08,16.13
215,Níjar,ES,2020-03-16 03:22:32,36.97,-2.21,20,87,57.2,3.36
216,Butaritari,KI,2020-03-16 03:22:34,3.07,172.79,88,78,84.04,13.04
217,Lüderitz,NA,2020-03-16 03:22:36,-26.65,15.16,0,82,62.6,10.29
218,Tigil',RU,2020-03-16 03:22:39,57.8,158.67,44,75,33.84,19.48
219,Soure,BR,2020-03-16 03:22:41,-0.72,-48.52,100,97,73.44,3.09
220,Conway,US,2020-03-16 03:21:03,35.09,-92.44,90,87,46.0,11.41
221,Dikson,RU,2020-03-16 03:22:45,73.51,80.55,100,100,-14.04,8.28
222,Kismayo,SO,2020-03-16 03:22:47,-0.36,42.55,53,78,82.81,12.75
223,Kununurra,AU,2020-03-16 03:22:49,-15.77,128.73,41,34,95.0,10.29
224,Kamenka,RU,2020-03-16 03:15:08,51.32,42.77,100,83,26.01,10.0
225,Manokwari,ID,2020-03-16 03:22:54,-0.87,134.08,84,70,79.81,5.59
226,São Félix do Xingu,BR,2020-03-16 03:22:56,-6.64,-51.99,100,99,69.75,3.47
227,Bairiki Village,KI,2020-03-16 03:15:27,1.33,172.98,20,66,89.6,6.93
228,Broome,US,2020-03-16 03:23:00,42.25,-75.83,1,45,27.0,9.17
229,Kupang,ID,2020-03-16 03:23:02,-10.17,123.58,40,62,89.6,3.36
230,Ubari,LY,2020-03-16 03:23:07,26.59,12.78,0,17,60.66,6.13
231,Sovetskiy,RU,2020-03-16 03:23:09,61.36,63.58,10,76,9.09,5.73
232,Puerto Escondido,MX,2020-03-16 03:23:11,15.85,-97.07,40,83,82.4,5.82
233,Kokopo,PG,2020-03-16 03:23:13,-4.35,152.26,99,73,84.45,13.49
234,Ilulissat,GL,2020-03-16 03:23:15,69.22,-51.1,93,47,-9.4,8.05
235,Mineiros,BR,2020-03-16 03:23:17,-17.57,-52.55,0,82,69.91,4.65
236,Provideniya,RU,2020-03-16 03:23:20,64.38,-173.3,90,92,23.0,4.47
237,Magnitogorsk,RU,2020-03-16 03:22:44,53.42,59.05,90,100,26.6,4.47
238,Dakar,SN,2020-03-16 03:23:24,14.69,-17.44,0,88,71.6,6.93
239,Fortuna,US,2020-03-16 03:23:26,40.6,-124.16,20,80,44.6,9.17
240,Rocha,UY,2020-03-16 03:23:28,-34.48,-54.33,26,91,53.87,2.37
241,Çanakkale Province,TR,2020-03-16 03:23:30,40.08,26.83,75,84,44.6,25.28
242,Illapel,CL,2020-03-16 03:23:32,-31.63,-71.17,0,74,53.08,0.67
243,Adrar,MR,2020-03-16 03:23:34,20.5,-10.07,0,20,67.33,12.62
244,Pangnirtung,CA,2020-03-16 03:23:36,66.15,-65.71,100,91,-19.59,7.7
245,Torbat-e Jām,IR,2020-03-16 03:19:28,35.24,60.62,100,75,50.38,7.23
246,Raja,SS,2020-03-16 03:23:41,8.46,25.68,50,27,69.69,2.35
247,Carnarvon,AU,2020-03-16 03:23:43,-24.87,113.63,8,62,84.2,16.11
248,Kruisfontein,ZA,2020-03-16 03:23:45,-34.0,24.73,100,88,60.33,10.02
249,Vung Tau,VN,2020-03-16 03:23:49,10.35,107.08,1,47,88.74,11.39
250,Abhā,SA,2020-03-16 03:23:51,18.22,42.51,78,93,55.4,2.28
251,Auki,SB,2020-03-16 03:23:53,-8.77,160.7,100,74,84.18,13.15
252,Port Lincoln,AU,2020-03-16 03:19:00,-34.73,135.87,57,41,74.35,16.67
253,Codrington,AU,2020-03-16 03:23:59,-38.27,141.97,0,76,60.51,13.85
254,Egvekinot,RU,2020-03-16 03:24:01,66.32,-179.17,99,96,11.19,3.47
255,San Patricio,MX,2020-03-16 03:24:03,19.22,-104.7,40,78,80.6,5.82
256,Geraldton,AU,2020-03-16 03:24:05,-28.77,114.6,75,65,77.0,11.41
257,Ismailia,EG,2020-03-16 03:24:08,30.6,32.27,0,72,61.81,4.9
258,Husavik,IS,2020-03-16 03:24:10,66.04,-17.34,90,86,30.2,14.99
259,Kiruna,SE,2020-03-16 03:24:12,67.86,20.23,33,79,21.2,19.46
260,Necochea,AR,2020-03-16 03:24:14,-38.55,-58.74,0,87,46.99,3.0
261,Damietta,EG,2020-03-16 03:24:16,31.42,31.81,0,93,62.6,5.82
262,Lac du Bonnet,CA,2020-03-16 03:24:18,50.25,-96.06,100,96,25.0,5.99
263,Talnakh,RU,2020-03-16 03:24:20,69.49,88.4,75,76,-11.2,8.95
264,Caravelas,BR,2020-03-16 03:24:22,-17.71,-39.25,100,80,80.2,7.7
265,Pandharpur,IN,2020-03-16 03:24:24,17.67,75.33,0,40,82.2,12.1
266,San Vicente,AR,2020-03-16 03:24:27,-26.62,-54.13,97,63,74.66,5.08
267,Chanika,TZ,2020-03-16 03:24:29,-5.42,38.02,100,97,71.47,2.98
268,Thun,CH,2020-03-16 03:20:53,46.75,7.62,0,78,41.0,1.12
269,Soyo,AO,2020-03-16 03:24:33,-6.13,12.37,100,90,80.29,5.61
270,Varadero,CU,2020-03-16 03:19:51,23.15,-81.25,0,83,71.6,5.82
271,San Juan,AR,2020-03-16 03:23:15,-31.54,-68.54,0,38,69.39,8.48
272,Asău,RO,2020-03-16 03:24:39,46.43,26.4,0,73,23.0,3.36
273,Palora,EC,2020-03-16 03:24:41,-1.7,-77.93,100,95,65.98,2.59
274,Kieta,PG,2020-03-16 03:24:44,-6.22,155.63,100,72,83.5,6.33
275,Roebourne,AU,2020-03-16 03:24:48,-20.78,117.13,0,28,97.88,3.91
276,Koumac,NC,2020-03-16 03:24:50,-20.57,164.28,79,73,81.39,6.64
277,Ballina,AU,2020-03-16 03:24:52,-28.87,153.57,40,78,75.2,17.22
278,Hailun,CN,2020-03-16 03:24:54,47.45,126.93,0,80,20.16,9.86
279,Tjøme,NO,2020-03-16 03:24:56,59.11,10.39,46,100,41.0,5.82
280,Canutama,BR,2020-03-16 03:24:58,-6.53,-64.38,97,99,74.16,1.81
281,Rechka Vydrino,RU,2020-03-16 03:25:01,51.48,104.85,100,74,34.14,5.86
282,Greater Sudbury,CA,2020-03-16 03:25:03,46.49,-80.99,5,37,17.6,9.17
283,Keetmanshoop,NA,2020-03-16 03:25:05,-26.58,18.13,0,40,71.6,1.12
284,Melilla,ES,2020-03-16 03:25:07,35.29,-2.94,40,82,60.8,8.05
285,Alice Springs,AU,2020-03-16 03:22:35,-23.7,133.88,0,13,82.4,9.17
286,Vostok,RU,2020-03-16 03:25:11,46.49,135.88,28,76,19.0,11.72
287,Mahébourg,MU,2020-03-16 03:25:13,-20.41,57.7,75,94,75.99,2.24
288,Kaitangata,NZ,2020-03-16 03:25:16,-46.28,169.85,100,80,53.01,1.99
289,Takoradze,GH,2020-03-16 03:25:18,4.88,-1.76,50,92,78.22,4.56
290,Chicama,PE,2020-03-16 03:25:20,-7.84,-79.15,100,83,73.4,8.05
291,Chara,RU,2020-03-16 03:25:24,56.91,118.26,100,87,21.43,2.62
292,Hamilton,US,2020-03-16 03:24:41,39.18,-84.53,90,86,42.01,3.36
293,Nome,US,2020-03-16 03:25:28,64.5,-165.41,100,98,30.61,7.76
294,Huilong,CN,2020-03-16 03:25:30,31.81,121.66,25,45,57.99,1.99
295,Beira,MZ,2020-03-16 03:25:33,-19.84,34.84,20,78,80.6,4.7
296,Kamyshla,RU,2020-03-16 03:25:35,54.12,52.14,94,93,23.52,13.18
297,Haines Junction,CA,2020-03-16 03:25:37,60.75,-137.51,7,92,17.78,0.76
298,Skoghall,SE,2020-03-16 03:25:39,59.32,13.47,100,100,39.99,3.36
299,Dobreşti,RO,2020-03-16 03:25:41,46.85,22.3,0,92,30.2,5.82
300,Turukhansk,RU,2020-03-16 03:24:21,65.82,87.98,77,86,-7.64,5.97
301,Loandjili,CG,2020-03-16 03:25:45,-4.76,11.86,75,94,80.6,2.24
302,Thinadhoo,MV,2020-03-16 03:25:47,0.53,72.93,98,60,83.39,6.73
303,Hereford,GB,2020-03-16 03:25:49,52.06,-2.71,0,94,39.0,3.87
304,Charlestown,AU,2020-03-16 03:25:52,-32.95,151.67,40,60,73.4,21.92
305,Manta,EC,2020-03-16 03:25:54,-0.95,-80.73,40,83,80.6,3.36
306,Atar,MR,2020-03-16 03:25:56,20.52,-13.05,0,26,63.57,7.65
307,Atasū,KZ,2020-03-16 03:25:28,48.68,71.64,100,76,36.52,3.06
308,Senanga,ZM,2020-03-16 03:26:01,-16.12,23.27,100,95,66.0,6.08
309,Tayga,RU,2020-03-16 03:26:03,56.06,85.62,20,65,41.0,26.84
310,Tartagal,AR,2020-03-16 03:26:05,-22.52,-63.8,46,99,69.82,3.69
311,Porto-Novo,BJ,2020-03-16 03:26:07,6.5,2.6,7,84,81.63,6.8
312,Cidreira,BR,2020-03-16 03:26:10,-30.18,-50.21,100,91,74.34,14.25
313,La Ronge,CA,2020-03-16 03:26:12,55.1,-105.28,5,61,12.2,8.05
314,Kavieng,PG,2020-03-16 03:24:34,-2.57,150.8,100,72,83.88,9.55
315,Ambon City,ID,2020-03-16 03:21:49,-3.7,128.18,40,52,89.6,8.05
316,Kavaratti,IN,2020-03-16 03:26:20,10.57,72.64,20,74,84.2,5.5
317,Lubao,PH,2020-03-16 03:26:22,14.92,120.55,75,58,86.0,6.93
318,Anadyr,RU,2020-03-16 03:26:24,64.75,177.48,100,92,21.2,2.24
319,Ilebo,CD,2020-03-16 03:26:27,-4.32,20.58,100,97,71.04,1.66
320,Ust'-Kan,RU,2020-03-16 03:26:29,50.93,84.76,100,76,29.21,9.66
321,Cooma,AU,2020-03-16 03:26:31,-36.23,149.13,75,45,64.4,4.7
322,Semey,KZ,2020-03-16 03:26:33,50.41,80.23,100,80,35.6,8.95
323,Shingū,JP,2020-03-16 03:26:35,33.73,135.98,75,46,48.2,20.8
324,Faanui,PF,2020-03-16 03:26:37,-16.48,-151.75,8,71,83.32,10.18
325,Verkhoyansk,RU,2020-03-16 03:26:39,67.54,133.38,97,71,-4.2,5.73
326,Huautla,MX,2020-03-16 03:26:42,21.03,-98.28,50,93,65.97,1.77
327,Laas,IT,2020-03-16 03:26:48,46.62,10.7,75,92,36.0,1.12
328,Gaoual,GN,2020-03-16 03:26:50,11.75,-13.2,38,23,69.39,0.89
329,Minas,UY,2020-03-16 03:22:13,-34.38,-55.24,75,72,63.0,5.82
330,Paredon,MX,2020-03-16 03:26:54,16.03,-93.87,0,66,83.95,13.98
331,Andenes,NO,2020-03-16 03:26:56,69.31,16.12,100,68,28.4,21.92
332,Atocha,BO,2020-03-16 03:27:01,-20.93,-66.23,82,91,45.21,6.69
333,Lăzăreni,RO,2020-03-16 03:27:03,46.87,22.07,0,92,30.2,5.82
334,Chipata,ZM,2020-03-16 03:27:05,-13.63,32.65,68,94,64.54,2.13
335,Ilām,NP,2020-03-16 03:27:07,26.92,87.92,0,46,57.6,3.29
336,Vao,NC,2020-03-16 03:24:27,-22.67,167.48,10,72,81.21,28.14
337,Bo Phloi,TH,2020-03-16 03:27:11,14.32,99.52,92,54,86.5,4.76
338,Camopi,GF,2020-03-16 03:27:13,3.17,-52.32,43,96,71.31,1.77
339,Port Macquarie,AU,2020-03-16 03:25:09,-31.43,152.92,21,88,75.0,4.7
340,Mwene-Ditu,CD,2020-03-16 03:27:22,-7.0,23.45,100,94,66.06,4.16
341,Malanje,AO,2020-03-16 03:27:26,-9.54,16.34,77,98,63.84,3.85
342,Marang,MY,2020-03-16 03:27:28,5.21,103.21,40,70,87.8,6.93
343,Rumonge,BI,2020-03-16 03:27:30,-3.97,29.44,100,82,67.62,4.47
344,Tabou,CI,2020-03-16 03:27:33,4.42,-7.35,100,95,74.95,1.74
345,Acaraú,BR,2020-03-16 03:27:37,-2.89,-40.12,100,97,75.02,4.07
346,Alofi,NU,2020-03-16 03:24:32,-19.06,-169.92,100,79,84.2,5.82
347,Gouyave,GD,2020-03-16 03:27:41,12.16,-61.73,75,88,77.0,12.21
348,Derzhavīnsk,KZ,2020-03-16 03:27:44,51.1,66.32,88,91,27.7,9.06
349,Ahipara,NZ,2020-03-16 03:23:03,-35.17,173.17,100,74,66.85,12.26
350,Abu Dhabi,AE,2020-03-16 03:27:47,24.47,54.37,20,53,75.0,9.17
351,Ostrovnoy,RU,2020-03-16 03:27:50,68.05,39.51,100,95,24.62,7.56
352,Angoche,MZ,2020-03-16 03:27:52,-16.23,39.91,10,97,70.43,5.61
353,Zonguldak,TR,2020-03-16 03:27:54,41.25,31.83,100,96,31.32,4.61
354,Lyubim,RU,2020-03-16 03:27:56,58.36,40.68,0,85,20.43,5.1
355,Okhotsk,RU,2020-03-16 03:27:21,59.38,143.3,21,78,10.83,13.06
356,Mount Gambier,AU,2020-03-16 03:28:01,-37.83,140.77,0,35,73.4,9.17
357,Leku,ET,2020-03-16 03:28:03,6.87,38.45,96,81,60.67,2.77
358,Sungai Raya,ID,2020-03-16 03:28:05,0.7,108.9,68,59,89.71,3.47
359,Diébougou,BF,2020-03-16 03:28:07,10.97,-3.25,99,50,83.86,7.09
360,Mola di Bari,IT,2020-03-16 03:28:09,41.06,17.09,1,75,50.0,5.82
361,Baharly,TM,2020-03-16 03:28:11,38.44,57.43,0,60,57.78,2.51
362,Kandi,BJ,2020-03-16 03:28:13,11.13,2.94,100,12,74.66,3.56
363,Wanaka,NZ,2020-03-16 03:28:16,-44.7,169.15,63,58,53.44,6.69
364,Aberdeen,GB,2020-03-16 03:25:55,57.14,-2.1,0,70,37.0,5.82
365,Hobyo,SO,2020-03-16 03:28:20,5.35,48.53,69,80,80.29,14.14
366,Cody,US,2020-03-16 03:28:06,44.53,-109.06,90,85,19.99,10.29
367,Calabozo,VE,2020-03-16 03:28:24,8.92,-67.43,100,44,79.99,8.88
368,Yulara,AU,2020-03-16 03:26:53,-25.24,130.99,0,8,89.6,9.17
369,Kashin,RU,2020-03-16 03:28:28,57.36,37.61,0,58,23.88,9.53
370,Praia,CV,2020-03-16 03:28:33,14.92,-23.51,20,77,69.8,18.34
371,Rathenow,DE,2020-03-16 03:28:37,52.61,12.34,100,48,41.0,5.82
372,Ixtapa,MX,2020-03-16 03:28:41,20.7,-105.2,5,83,73.4,2.06
373,Kropotkin,RU,2020-03-16 03:28:43,45.44,40.58,100,49,36.0,9.46
374,Bahía Blanca,AR,2020-03-16 03:28:45,-38.72,-62.27,0,39,57.97,10.04
375,Evensk,RU,2020-03-16 03:28:47,61.95,159.23,100,92,15.76,15.61
376,Kailua,US,2020-03-16 03:26:40,21.4,-157.74,90,74,78.8,8.68
377,Elko,US,2020-03-16 03:28:54,41.0,-115.5,40,52,46.0,10.16
378,Rio Grande,BR,2020-03-16 03:27:37,-32.03,-52.1,90,100,68.0,11.63
379,Touros,BR,2020-03-16 03:28:58,-5.2,-35.46,75,100,75.2,4.7
380,Kahului,US,2020-03-16 03:24:55,20.89,-156.47,75,83,75.2,18.28
381,Petropavlovsk-Kamchatskiy,RU,2020-03-16 03:29:04,53.05,158.65,90,100,35.6,15.66
382,Kiryat Gat,IL,2020-03-16 03:28:14,31.61,34.76,37,93,57.0,2.24
383,Leningradskiy,RU,2020-03-16 03:26:58,69.38,178.42,0,73,13.6,4.23
384,Mata,PT,2020-03-16 03:29:11,40.68,-7.46,10,36,39.0,8.01
385,Meulaboh,ID,2020-03-16 03:24:28,4.14,96.13,100,75,83.21,5.86
386,Milledgeville,US,2020-03-16 03:29:15,33.08,-83.23,90,93,64.0,1.34
387,Santa Rita,BR,2020-03-16 03:29:18,-7.11,-34.98,75,94,77.0,4.7
388,Heihe,CN,2020-03-16 03:29:20,50.24,127.49,0,26,30.2,4.47
389,Hay River,CA,2020-03-16 03:26:52,60.82,-115.8,75,67,17.6,9.17
390,San Quintín,MX,2020-03-16 03:29:13,30.48,-115.95,0,77,59.22,12.15
391,Ngama,TD,2020-03-16 03:25:20,11.78,17.17,0,13,68.9,7.56
392,Palafrugell,ES,2020-03-16 03:29:28,41.92,3.16,75,93,55.99,2.24
393,Tabas,IR,2020-03-16 03:29:30,33.6,56.92,97,71,58.3,2.91
394,Oranjestad,AW,2020-03-16 03:27:11,12.52,-70.03,20,78,80.6,12.75
395,Caruray,PH,2020-03-16 03:29:34,10.31,119.01,20,55,89.6,16.11
396,West Mifflin,US,2020-03-16 03:29:39,40.36,-79.87,1,86,39.99,3.38
397,Bonthe,SL,2020-03-16 03:29:41,7.53,-12.51,100,87,79.72,5.06
398,Khani,GE,2020-03-16 03:29:43,41.96,42.96,90,93,42.8,14.99
399,Isangel,VU,2020-03-16 03:27:32,-19.55,169.27,90,84,86.0,23.04
400,Dhidhdhoo,MV,2020-03-16 03:29:49,6.88,73.1,99,73,83.34,5.41
401,Tadine,NC,2020-03-16 03:29:51,-21.55,167.88,96,66,85.28,10.25
402,Rawson,AR,2020-03-16 03:25:47,-43.3,-65.1,79,66,64.27,20.18
403,Mahmudābād,IN,2020-03-16 03:29:56,27.3,81.12,75,77,66.2,4.7
404,Shrīrangapattana,IN,2020-03-16 03:29:58,12.41,76.7,33,65,77.0,6.93
405,Roura,GF,2020-03-16 03:30:00,4.73,-52.33,75,88,77.0,1.77
406,Luau,AO,2020-03-16 03:30:01,-10.71,22.22,100,96,65.08,3.51
407,Mayo,US,2020-03-16 03:28:34,38.89,-76.51,1,80,44.6,4.7
408,Pichayevo,RU,2020-03-16 03:30:07,53.24,42.2,100,93,23.76,14.63
409,Coquimbo,CL,2020-03-16 03:27:24,-29.95,-71.34,90,87,60.8,4.47
410,Kāzerūn,IR,2020-03-16 03:30:11,29.62,51.65,71,52,59.05,2.8
411,Riyadh,SA,2020-03-16 03:26:01,24.69,46.72,0,51,60.8,4.7
412,Leshukonskoye,RU,2020-03-16 03:30:15,64.9,45.76,100,90,19.04,13.38
413,Chincha Alta,PE,2020-03-16 03:30:20,-13.41,-76.13,40,83,73.4,5.82
414,Kursk,RU,2020-03-16 03:30:22,51.73,36.19,75,79,25.0,6.71
415,Maningrida,AU,2020-03-16 03:30:24,-12.07,134.27,0,59,85.41,3.42
416,Sohag,EG,2020-03-16 03:30:26,26.56,31.69,0,63,60.8,4.7
417,Merauke,ID,2020-03-16 03:30:28,-8.47,140.33,75,59,88.34,7.52
418,Sestri Levante,IT,2020-03-16 03:30:30,44.27,9.4,0,57,51.01,17.22
419,Akureyri,IS,2020-03-16 03:30:32,65.68,-18.09,90,86,30.2,14.99
420,Brisbane,AU,2020-03-16 03:26:02,-27.47,153.03,75,47,81.0,13.87
421,Gdynia,PL,2020-03-16 03:30:37,54.52,18.53,100,51,39.0,14.99
422,Itarema,BR,2020-03-16 03:26:04,-2.92,-39.92,100,97,75.02,4.07
423,São João da Barra,BR,2020-03-16 03:27:23,-21.64,-41.05,0,87,77.74,12.17
424,Dwārka,IN,2020-03-16 03:26:52,22.24,68.97,100,50,75.31,21.43
425,Mindelo,CV,2020-03-16 03:30:47,16.89,-24.98,75,68,69.8,23.04
426,Biak,ID,2020-03-16 03:30:50,-0.91,122.88,54,74,82.49,5.12
427,Marrakesh,MA,2020-03-16 03:30:52,31.63,-8.01,40,76,57.2,6.93
428,Santa Maria,BR,2020-03-16 03:27:12,-29.68,-53.81,75,88,73.4,10.29
429,Lira,UG,2020-03-16 03:30:56,2.23,32.91,84,74,71.58,1.5
430,Camacha,PT,2020-03-16 03:30:50,33.08,-16.33,40,72,60.8,13.87
431,Vitim,RU,2020-03-16 03:31:06,59.45,112.56,99,93,31.44,13.29
432,Klaksvík,FO,2020-03-16 03:27:34,62.23,-6.59,100,69,33.8,19.46
433,Cap Malheureux,MU,2020-03-16 03:26:58,-19.98,57.61,75,94,75.99,2.24
434,Iqaluit,CA,2020-03-16 03:27:32,63.75,-68.51,90,64,-0.4,13.87
435,Spring Hill,US,2020-03-16 03:31:14,28.48,-82.53,20,77,73.99,5.1
436,Makakilo City,US,2020-03-16 03:26:53,21.35,-158.09,90,83,78.8,4.7
437,Itabira,BR,2020-03-16 03:31:18,-19.62,-43.23,0,96,62.82,1.66
438,Basco,PH,2020-03-16 03:28:33,20.45,121.97,7,71,70.25,24.58
439,Mbanza-Ngungu,CD,2020-03-16 03:31:25,-5.25,14.87,95,98,69.28,4.07
440,Ürümqi,CN,2020-03-16 03:24:58,43.8,87.6,0,42,44.6,2.24
441,Buala,SB,2020-03-16 03:27:42,-8.14,159.59,100,75,83.62,9.55
442,Waddān,LY,2020-03-16 03:31:31,29.16,16.14,0,64,57.74,6.51
443,Distrikt Brokopondo,SR,2020-03-16 03:31:33,4.75,-55.17,1,78,75.2,5.73
444,Dunedin,NZ,2020-03-16 03:24:11,-45.87,170.5,88,81,53.01,1.99
445,Labuhan,ID,2020-03-16 03:27:30,-6.88,112.21,0,70,85.28,5.99
446,Laguna,US,2020-03-16 03:29:54,38.42,-121.42,75,93,51.8,8.05
447,Tual,ID,2020-03-16 03:30:36,-5.67,132.75,3,78,81.9,9.51
448,Andrelândia,BR,2020-03-16 03:31:44,-21.74,-44.31,94,95,62.89,1.7
449,Pizhanka,RU,2020-03-16 03:31:46,57.46,48.54,2,90,19.89,10.11
450,Ponta Delgada,PT,2020-03-16 03:30:08,37.73,-25.67,20,76,50.0,2.24
451,Fairbanks,US,2020-03-16 03:29:05,64.84,-147.72,90,86,30.2,9.17
452,Paraná,AR,2020-03-16 03:31:52,-31.73,-60.52,100,93,70.0,6.2
453,Paamiut,GL,2020-03-16 03:29:27,61.99,-49.67,0,59,-4.2,15.32
454,Teeli,RU,2020-03-16 03:31:56,51.03,90.23,100,77,30.81,0.6
455,Alexandria,EG,2020-03-16 03:25:54,31.22,29.96,0,87,59.0,2.24
456,Mount Isa,AU,2020-03-16 03:30:25,-20.73,139.5,39,24,91.4,10.29
457,Back Mountain,US,2020-03-16 03:32:03,41.34,-76.0,1,68,34.0,3.36
458,Batagay,RU,2020-03-16 03:31:02,67.63,134.63,89,79,-5.44,4.92
459,Kapit,MY,2020-03-16 03:29:49,2.02,112.93,82,68,83.03,2.57
460,Mahanoro,MG,2020-03-16 03:32:09,-19.9,48.8,10,83,77.79,12.12
461,São José da Coroa Grande,BR,2020-03-16 03:30:00,-8.9,-35.15,46,74,82.15,5.64
462,Tura,IN,2020-03-16 03:32:13,25.52,90.22,40,41,80.4,3.2
463,Beverley,GB,2020-03-16 03:32:15,53.85,-0.42,35,87,44.01,3.36
464,Luganville,VU,2020-03-16 03:32:18,-15.53,167.17,90,94,80.6,5.82
465,Preston,GB,2020-03-16 03:32:20,53.77,-2.72,40,81,45.0,11.41
466,Kamaishi,JP,2020-03-16 03:32:22,39.27,141.88,75,69,37.4,20.8
467,Westport,US,2020-03-16 03:29:04,41.14,-73.36,1,26,44.6,11.41
468,Boyolangu,ID,2020-03-16 03:32:26,-8.12,111.89,0,65,85.69,6.8
469,Bambanglipuro,ID,2020-03-16 03:26:46,-7.95,110.28,7,66,85.93,7.96
470,Trebisacce,IT,2020-03-16 03:32:30,39.87,16.53,5,81,48.2,8.05
471,Opuwo,NA,2020-03-16 03:25:52,-18.06,13.84,100,43,67.68,4.83
472,Glace Bay,CA,2020-03-16 03:32:35,46.2,-59.96,90,73,28.0,8.05
473,Poya,NC,2020-03-16 03:32:37,-21.35,165.15,8,71,81.39,9.69
474,Deputatsky,RU,2020-03-16 03:24:17,69.3,139.9,0,81,-16.01,3.56
475,Krasnyy Chikoy,RU,2020-03-16 03:32:41,50.36,108.75,76,77,30.06,16.75
476,Lázaro Cárdenas,MX,2020-03-16 03:25:41,17.96,-102.2,25,88,75.83,3.65
477,Tongchuanshi,CN,2020-03-16 03:32:45,35.08,109.09,100,37,56.32,3.91
478,Canatlán,MX,2020-03-16 03:32:47,24.52,-104.78,40,17,71.6,8.05
479,Sørland,NO,2020-03-16 03:28:04,67.67,12.69,62,54,31.55,20.31
480,Bilgi,IN,2020-03-16 03:32:52,16.35,75.62,0,49,78.39,7.31
481,Narsaq,GL,2020-03-16 03:28:04,60.92,-46.05,100,67,21.2,0.69
482,Boguchany,RU,2020-03-16 03:31:02,58.38,97.45,100,89,32.27,9.24
483,Barra de Tecoanapa,MX,2020-03-16 03:32:58,16.52,-98.75,16,85,75.47,1.12
484,Lima,PE,2020-03-16 03:31:26,-12.04,-77.03,40,83,75.2,18.34
485,Carandaí,BR,2020-03-16 03:33:03,-20.95,-43.81,9,96,62.29,4.99
486,Tubualá,PA,2020-03-16 03:33:05,9.52,-79.03,20,65,80.6,4.7
487,Impfondo,CG,2020-03-16 03:30:47,1.64,18.07,100,81,75.06,2.17
488,Salalah,OM,2020-03-16 03:22:34,17.02,54.09,20,73,73.4,3.36
489,Roanoke Rapids,US,2020-03-16 03:28:58,36.46,-77.65,90,87,48.2,8.05
490,Barra Patuca,HN,2020-03-16 03:30:35,15.8,-84.28,0,80,79.66,14.25
491,Tsumeb,NA,2020-03-16 03:33:15,-19.23,17.72,88,93,64.4,4.7
492,Abu Samrah,SY,2020-03-16 03:29:19,35.3,37.18,2,86,51.85,4.85
493,Tiarei,PF,2020-03-16 03:33:20,-17.53,-149.33,40,70,86.0,12.75
494,Ust-Maya,RU,2020-03-16 03:31:31,60.42,134.53,35,88,5.27,3.83
495,Vazante,BR,2020-03-16 03:33:24,-17.99,-46.91,100,90,65.66,1.88
496,Maniitsoq,GL,2020-03-16 03:29:47,65.42,-52.9,38,72,-1.52,5.91
497,Muros,ES,2020-03-16 03:30:39,42.78,-9.06,75,93,48.99,3.36
498,Krasnosel'kup,RU,2020-03-16 03:33:30,65.7,82.47,100,79,-5.3,13.82
499,Oddur,SO,2020-03-16 03:31:50,4.12,43.89,13,95,70.2,11.88
500,Villa Florida,PY,2020-03-16 03:33:34,-26.38,-57.15,65,68,76.91,7.0
501,Dudinka,RU,2020-03-16 03:33:37,69.41,86.18,75,76,-11.2,8.95
502,Tessalit,ML,2020-03-16 03:28:19,20.2,1.01,73,16,72.41,4.23
503,Honningsvåg,NO,2020-03-16 03:30:11,70.98,25.97,100,70,26.55,4.88
504,Santarém,BR,2020-03-16 03:33:43,-2.44,-54.71,75,94,75.2,4.7
505,Huesca,ES,2020-03-16 03:33:45,42.14,-0.41,90,100,51.01,9.17
506,Isil'kul',RU,2020-03-16 03:33:49,54.91,71.27,22,89,29.43,13.62
507,Half Moon Bay,US,2020-03-16 03:30:12,37.46,-122.43,90,70,51.01,4.7
508,Quelimane,MZ,2020-03-16 03:33:54,-17.88,36.89,83,82,76.57,2.93
509,Yangi Marg`ilon,UZ,2020-03-16 03:25:55,40.43,71.72,100,46,55.4,6.93
510,Umm Hājar,TD,2020-03-16 03:29:25,13.3,19.7,43,13,68.92,9.13
511,Raudeberg,NO,2020-03-16 03:27:01,61.99,5.14,6,64,37.0,8.05
512,Kontagora,NG,2020-03-16 03:29:40,10.4,5.47,87,11,70.84,5.5
513,Aguadilla,PR,2020-03-16 03:34:04,18.43,-67.15,40,78,75.99,10.29
514,Reinosa,ES,2020-03-16 03:34:07,43.0,-4.14,75,87,46.0,12.75
515,Kryve Ozero,UA,2020-03-16 03:34:09,47.95,30.35,0,61,29.52,6.93
516,Porech'ye-Rybnoye,RU,2020-03-16 03:34:11,57.1,39.38,0,92,17.6,4.47
517,‘Ewa Beach,US,2020-03-16 03:32:38,21.32,-158.01,90,83,78.8,4.7
518,Korhogo,CI,2020-03-16 03:34:16,9.45,-5.63,100,72,77.77,6.44
519,Tezu,IN,2020-03-16 03:30:14,27.92,96.17,100,65,72.0,1.25
520,Fethiye,TR,2020-03-16 03:34:21,36.62,29.12,40,93,51.8,3.36
521,Sarny,UA,2020-03-16 03:34:23,51.34,26.6,0,49,28.74,7.67
522,Tarauacá,BR,2020-03-16 03:34:25,-8.16,-70.77,100,94,74.84,2.51
523,Betanzos,ES,2020-03-16 03:34:27,43.28,-8.21,20,75,52.0,14.99
524,Beringovskiy,RU,2020-03-16 03:34:29,63.05,179.32,77,85,29.1,6.78
525,Cap-Haïtien,HT,2020-03-16 03:34:31,19.76,-72.2,2,77,75.36,18.63
526,Aripuanã,BR,2020-03-16 03:30:36,-9.17,-60.63,100,96,70.07,1.45
527,Singaparna,ID,2020-03-16 03:34:37,-7.35,108.11,31,62,82.85,5.19
528,The Valley,AI,2020-03-16 03:27:01,18.22,-63.06,20,73,77.0,5.82
529,Rong Kwang,TH,2020-03-16 03:34:41,18.34,100.32,20,62,86.0,5.82
530,Zhanakorgan,KZ,2020-03-16 03:34:43,43.91,67.25,100,26,58.82,11.92
531,Aksarka,RU,2020-03-16 03:30:41,66.56,67.8,44,80,-6.86,8.77
532,Eydhafushi,MV,2020-03-16 03:31:08,5.1,73.07,42,72,83.66,9.42
533,Lincoln,US,2020-03-16 03:34:49,40.8,-96.67,90,80,35.01,9.17
534,Callaway,US,2020-03-16 03:29:57,30.15,-85.57,1,93,68.0,5.19
535,Constitución,CL,2020-03-16 03:25:59,-35.33,-72.42,0,80,53.01,5.91
536,Da Lat,VN,2020-03-16 03:34:56,11.95,108.44,66,43,74.3,7.0
537,Copiapó,CL,2020-03-16 03:29:44,-27.37,-70.33,0,82,62.6,6.93
538,Manuk Mangkaw,PH,2020-03-16 03:28:39,4.8,119.85,74,68,83.14,5.01
539,Ucluelet,CA,2020-03-16 03:32:07,48.93,-125.55,0,73,39.99,2.13
540,Gevrai,IN,2020-03-16 03:35:05,19.27,75.75,18,21,81.3,10.74
541,Coari,BR,2020-03-16 03:35:07,-4.08,-63.14,62,89,74.21,2.24
542,Sfântu Gheorghe,RO,2020-03-16 03:35:12,45.87,25.78,0,70,23.0,1.01
543,Fangshan,CN,2020-03-16 03:35:14,39.7,115.99,91,41,48.99,4.47
544,Aasiaat,GL,2020-03-16 03:35:16,68.71,-52.87,100,97,-14.04,12.39
545,Athabasca,CA,2020-03-16 03:31:43,54.72,-113.29,5,90,7.12,5.88
546,Hasaki,JP,2020-03-16 03:27:20,35.73,140.83,75,46,57.0,12.75
547,Las Vegas,US,2020-03-16 03:24:16,36.17,-115.14,1,38,62.6,4.7
548,Esik,KZ,2020-03-16 03:35:24,43.36,77.45,20,29,51.8,4.47
549,Palmer,US,2020-03-16 03:24:18,42.16,-72.33,1,36,36.0,8.05
550,Camocim,BR,2020-03-16 03:29:01,-2.9,-40.84,100,97,74.86,3.4
551,Saldanha,ZA,2020-03-16 03:28:24,-33.01,17.94,99,63,64.4,6.93
552,Russell,US,2020-03-16 03:30:52,32.35,-85.2,90,64,71.6,5.08
553,Otukpo,NG,2020-03-16 03:35:37,7.19,8.13,88,61,74.93,4.5
554,Dingli,MT,2020-03-16 03:31:48,35.86,14.38,20,82,57.2,9.17
555,Lensk,RU,2020-03-16 03:30:15,60.73,114.93,100,89,30.42,12.08
556,Abriaquí,CO,2020-03-16 03:35:43,6.63,-76.06,74,92,57.29,0.92
557,Bontang,ID,2020-03-16 03:35:45,0.13,117.5,13,74,82.8,14.83
558,Kagoro,NG,2020-03-16 03:35:48,9.6,8.38,25,13,69.73,5.82
